{"type" : "FeatureCollection", "features" : [{"type" : "Feature", "geometry" : {"type":"Point","coordinates":[-61.525629029,47.558527434]}, "properties" : {"id" : "01023026888711500000000", "lot_address" : "405 - 409 route 199", "ivp" : 31.9, "hlm_addresses" : ["405 route 199"], "num_dwellings" : 6}}, {"type" : "Feature", "geometry" : {"type":"Point","coordinates":[-61.932122408,47.223342119]}, "properties" : {"id" : "01023723106754400000000", "lot_address" : "576 chemin du Bassin", "ivp" : 6.7, "hlm_addresses" : ["576 chemin du Bassin"], "num_dwellings" : 17}}, {"type" : "Feature", "geometry" : {"type":"Point","coordinates":[-61.905614773,47.371646407]}, "properties" : {"id" : "01023744811682000000000", "lot_address" : "1320 chemin de La Vernière", "ivp" : 10.2, "hlm_addresses" : ["1320 chemin de La Vernière"], "num_dwellings" : 20}}, {"type" : "Feature", "geometry" : {"type":"Point","coordinates":[-61.898194214,47.402642415]}, "properties" : {"id" : "01023745175485900000000", "lot_address" : "179 chemin Valentin-Cummings", "ivp" : 6.1, "hlm_addresses" : ["179 chemin Valentin-Cummings"], "num_dwellings" : 20}}, {"type" : "Feature", "geometry" : {"type":"Point","coordinates":[-61.873528068,47.374020644]}, "properties" : {"id" : "01023764853957100000000", "lot_address" : "594 chemin Principal", "ivp" : 24.2, "hlm_addresses" : ["594 chemin Principal"], "num_dwellings" : 17}}, {"type" : "Feature", "geometry" : {"type":"Point","coordinates":[-61.851853389,47.235643996]}, "properties" : {"id" : "01023783219608100000000", "lot_address" : "28 - 32 chemin de l' École", "ivp" : 7.2, "hlm_addresses" : ["32 chemin de l' École", "28 chemin de l' École"], "num_dwellings" : 17}}, {"type" : "Feature", "geometry" : {"type":"Point","coordinates":[-61.707967319,47.529041781]}, "properties" : {"id" : "01023896515435600000000", "lot_address" : "1671 route 199", "ivp" : 6.3, "hlm_addresses" : ["1671 route 199"], "num_dwellings" : 7}}, {"type" : "Feature", "geometry" : {"type":"Point","coordinates":[-61.513094421,47.615022421]}, "properties" : {"id" : "01042037580179300000000", "lot_address" : "522 chemin Principal", "ivp" : 5.5, "hlm_addresses" : ["522 chemin Principal"], "num_dwellings" : 11}}, {"type" : "Feature", "geometry" : {"type":"Point","coordinates":[-64.332452752,48.42587416]}, "properties" : {"id" : "02005176512956100000000", "lot_address" : "46 rue du Curé-Poirier", "ivp" : 23.8, "hlm_addresses" : ["46 rue du Curé-Poirier"], "num_dwellings" : 10}}, {"type" : "Feature", "geometry" : {"type":"Point","coordinates":[-64.27968729,48.617375142]}, "properties" : {"id" : "02005218605436400000000", "lot_address" : "1069 route 132 Est", "ivp" : 30.5, "hlm_addresses" : ["1069 route 132 Est"], "num_dwellings" : 9}}, {"type" : "Feature", "geometry" : {"type":"Point","coordinates":[-64.215762021,48.527774293]}, "properties" : {"id" : "02005257676921500000000", "lot_address" : "15 rue du Cap-Barré", "ivp" : 2.5, "hlm_addresses" : ["15 rue du Cap-Barré"], "num_dwellings" : 21}}, {"type" : "Feature", "geometry" : {"type":"Point","coordinates":[-64.210022536,48.653568513]}, "properties" : {"id" : "02005269016550900000000", "lot_address" : "1909 route 132 Est", "ivp" : 31.4, "hlm_addresses" : ["1909 route 132 Est"], "num_dwellings" : 6}}, {"type" : "Feature", "geometry" : {"type":"Point","coordinates":[-64.394502202,48.417070123]}, "properties" : {"id" : "02010126462087300000000", "lot_address" : "15 rue du Havre", "ivp" : 13.8, "hlm_addresses" : ["15 rue du Havre"], "num_dwellings" : 13}}, {"type" : "Feature", "geometry" : {"type":"Point","coordinates":[-64.498938412,48.399728702]}, "properties" : {"id" : "02015046283793900000000", "lot_address" : "89 rue de l' Hôtel-De-Ville", "ivp" : 36.0, "hlm_addresses" : ["89 rue de l' Hôtel-De-Ville"], "num_dwellings" : 6}}, {"type" : "Feature", "geometry" : {"type":"Point","coordinates":[-64.498522945,48.39921429]}, "properties" : {"id" : "02015046292098200000000", "lot_address" : "99 rue du Carrefour", "ivp" : 38.2, "hlm_addresses" : ["99 rue du Carrefour"], "num_dwellings" : 6}}, {"type" : "Feature", "geometry" : {"type":"Point","coordinates":[-64.49853752,48.399625962]}, "properties" : {"id" : "02015046293112500000000", "lot_address" : "101 rue du Carrefour", "ivp" : 48.9, "hlm_addresses" : ["101 rue du Carrefour"], "num_dwellings" : 10}}, {"type" : "Feature", "geometry" : {"type":"Point","coordinates":[-64.491623504,48.404399746]}, "properties" : {"id" : "02015056248205800000000", "lot_address" : "195 rue du Parc", "ivp" : 31.1, "hlm_addresses" : ["195 rue du Parc"], "num_dwellings" : 8}}, {"type" : "Feature", "geometry" : {"type":"Point","coordinates":[-64.489903936,48.39978081]}, "properties" : {"id" : "02015056253484500000000", "lot_address" : "168 rue de l' Hôtel-De-Ville", "ivp" : 61.4, "hlm_addresses" : ["168 rue de l' Hôtel-De-Ville"], "num_dwellings" : 4}}, {"type" : "Feature", "geometry" : {"type":"Point","coordinates":[-64.488446258,48.399859579]}, "properties" : {"id" : "02015056263545200000000", "lot_address" : "188 rue de l' Hôtel-De-Ville", "ivp" : 51.6, "hlm_addresses" : ["188 rue de l' Hôtel-De-Ville"], "num_dwellings" : 6}}, {"type" : "Feature", "geometry" : {"type":"Point","coordinates":[-64.744406221,48.267108385]}, "properties" : {"id" : "02028864766572200000000", "lot_address" : "1 route Maurice-Beaudin", "ivp" : 20.0, "hlm_addresses" : ["1 route Maurice-Beaudin"], "num_dwellings" : 13}}, {"type" : "Feature", "geometry" : {"type":"Point","coordinates":[-64.691787836,48.353903158]}, "properties" : {"id" : "02028905752886200000000", "lot_address" : "726 - 730 avenue Bond", "ivp" : 11.8, "hlm_addresses" : ["726 avenue Bond", "727 avenue Bond"], "num_dwellings" : 4}}, {"type" : "Feature", "geometry" : {"type":"Point","coordinates":[-64.673135828,48.349973268]}, "properties" : {"id" : "02028915698385600000000", "lot_address" : "430 - 436 avenue du Domaine", "ivp" : 24.1, "hlm_addresses" : ["436 avenue du Domaine", "434 avenue du Domaine", "432 avenue du Domaine"], "num_dwellings" : 50}}, {"type" : "Feature", "geometry" : {"type":"Point","coordinates":[-64.678495321,48.355107652]}, "properties" : {"id" : "02028915753739300000000", "lot_address" : "91 - 131 rue Monseigneur-F.-X.-Ross Est", "ivp" : 20.4, "hlm_addresses" : ["131 rue Monseigneur-F.-X.-Ross Est", "91 rue Monseigneur-F.-X.-Ross Est", "121 rue Monseigneur-F.-X.-Ross Est"], "num_dwellings" : 30}}, {"type" : "Feature", "geometry" : {"type":"Point","coordinates":[-64.663950921,48.351235594]}, "properties" : {"id" : "02028925669506000000000", "lot_address" : "731 - 735 avenue Grenier", "ivp" : 23.4, "hlm_addresses" : ["731 avenue Grenier"], "num_dwellings" : 3}}, {"type" : "Feature", "geometry" : {"type":"Point","coordinates":[-64.609485655,48.361784072]}, "properties" : {"id" : "02028965861902700000000", "lot_address" : "15 route de l' Église", "ivp" : 24.8, "hlm_addresses" : ["15 route de l' Église"], "num_dwellings" : 8}}, {"type" : "Feature", "geometry" : {"type":"Point","coordinates":[-64.607380708,48.362664387]}, "properties" : {"id" : "02028965882442400000000", "lot_address" : "419 boulevard Pabos", "ivp" : 33.4, "hlm_addresses" : ["419 boulevard Pabos"], "num_dwellings" : 10}}, {"type" : "Feature", "geometry" : {"type":"Point","coordinates":[-64.954603509,48.184568701]}, "properties" : {"id" : "02047713805001600000000", "lot_address" : "405 - 407 route du Capitaine-Fournier", "ivp" : 3.6, "hlm_addresses" : ["405 route du Capitaine-Fournier", "407 route du Capitaine-Fournier"], "num_dwellings" : 17}}, {"type" : "Feature", "geometry" : {"type":"Point","coordinates":[-64.475935137,48.822640874]}, "properties" : {"id" : "03005060953924600000000", "lot_address" : "14 rue Fremont", "ivp" : 9.2, "hlm_addresses" : ["14 rue Fremont"], "num_dwellings" : 21}}, {"type" : "Feature", "geometry" : {"type":"Point","coordinates":[-64.474655476,48.822579095]}, "properties" : {"id" : "03005060963625900000000", "lot_address" : "41 rue des Grandvillais", "ivp" : 25.7, "hlm_addresses" : ["41 rue des Grandvillais"], "num_dwellings" : 4}}, {"type" : "Feature", "geometry" : {"type":"Point","coordinates":[-64.474312056,48.822485528]}, "properties" : {"id" : "03005060963854500000000", "lot_address" : "45 rue des Grandvillais", "ivp" : 15.2, "hlm_addresses" : ["45 rue des Grandvillais"], "num_dwellings" : 4}}, {"type" : "Feature", "geometry" : {"type":"Point","coordinates":[-64.4742736,48.822806961]}, "properties" : {"id" : "03005060963898200000000", "lot_address" : "44 - 46 1 rue Chabot", "ivp" : 0.0, "hlm_addresses" : ["44 rue Chabot"], "num_dwellings" : 2}}, {"type" : "Feature", "geometry" : {"type":"Point","coordinates":[-64.474009977,48.822323592]}, "properties" : {"id" : "03005060973082800000000", "lot_address" : "49 rue des Grandvillais", "ivp" : 14.1, "hlm_addresses" : ["49 rue des Grandvillais"], "num_dwellings" : 4}}, {"type" : "Feature", "geometry" : {"type":"Point","coordinates":[-64.473320299,48.822681937]}, "properties" : {"id" : "03005060973596800000000", "lot_address" : "56 1 - 58 2 rue Chabot", "ivp" : 0.0, "hlm_addresses" : ["56 rue Chabot"], "num_dwellings" : 2}}, {"type" : "Feature", "geometry" : {"type":"Point","coordinates":[-64.477651258,49.051132646]}, "properties" : {"id" : "03005063447337300000000", "lot_address" : "658 boulevard de Saint-Maurice", "ivp" : 0.0, "hlm_addresses" : ["658 boulevard de Saint-Maurice"], "num_dwellings" : 8}}, {"type" : "Feature", "geometry" : {"type":"Point","coordinates":[-64.474405807,49.049928231]}, "properties" : {"id" : "03005063466683400000000", "lot_address" : "10 rue des Condors", "ivp" : 20.1, "hlm_addresses" : ["10 rue des Condors"], "num_dwellings" : 8}}, {"type" : "Feature", "geometry" : {"type":"Point","coordinates":[-64.464246534,48.787169386]}, "properties" : {"id" : "03005070544312100000000", "lot_address" : "552 boulevard de York Sud", "ivp" : 3.8, "hlm_addresses" : ["552 boulevard de York Sud"], "num_dwellings" : 4}}, {"type" : "Feature", "geometry" : {"type":"Point","coordinates":[-64.440784363,48.820155446]}, "properties" : {"id" : "03005090910488800000000", "lot_address" : "4 A - 4 D rue Forest", "ivp" : 6.4, "hlm_addresses" : ["4 rue Forest"], "num_dwellings" : 4}}, {"type" : "Feature", "geometry" : {"type":"Point","coordinates":[-64.410906435,48.99350966]}, "properties" : {"id" : "03005112833196700000000", "lot_address" : "7 rue de l' Arena", "ivp" : 15.6, "hlm_addresses" : ["7 rue de l' Arena"], "num_dwellings" : 6}}, {"type" : "Feature", "geometry" : {"type":"Point","coordinates":[-64.376752906,48.988735786]}, "properties" : {"id" : "03005132788193900000000", "lot_address" : "8 - 14 rue des Cordiers", "ivp" : 31.1, "hlm_addresses" : ["14 rue des Cordiers", "13 rue des Cordiers", "9 rue des Cordiers"], "num_dwellings" : 8}}, {"type" : "Feature", "geometry" : {"type":"Point","coordinates":[-64.376565494,48.9892658]}, "properties" : {"id" : "03005132788329800000000", "lot_address" : "12 - 14 1 rue des Chalutiers", "ivp" : 6.7, "hlm_addresses" : ["12 rue des Chalutiers"], "num_dwellings" : 2}}, {"type" : "Feature", "geometry" : {"type":"Point","coordinates":[-64.375783193,48.98898333]}, "properties" : {"id" : "03005132788906700000000", "lot_address" : "19 - 21 1 rue des Chalutiers", "ivp" : 6.4, "hlm_addresses" : ["19 rue des Chalutiers", "20 rue des Chalutiers"], "num_dwellings" : 4}}, {"type" : "Feature", "geometry" : {"type":"Point","coordinates":[-64.326109982,48.831477085]}, "properties" : {"id" : "03005171053655100000000", "lot_address" : "1930 boulevard de Grande-Greve", "ivp" : 12.2, "hlm_addresses" : ["1930 boulevard de Grande-Greve"], "num_dwellings" : 6}}, {"type" : "Feature", "geometry" : {"type":"Point","coordinates":[-64.300070994,48.931799102]}, "properties" : {"id" : "03005192145512300000000", "lot_address" : "586 boulevard du Griffon", "ivp" : 28.8, "hlm_addresses" : ["586 boulevard du Griffon"], "num_dwellings" : 11}}, {"type" : "Feature", "geometry" : {"type":"Point","coordinates":[-64.849897289,49.18093846]}, "properties" : {"id" : "03010794922835300000000", "lot_address" : "474 route 132", "ivp" : 19.2, "hlm_addresses" : ["474 route 132"], "num_dwellings" : 6}}, {"type" : "Feature", "geometry" : {"type":"Point","coordinates":[-65.72446703,49.213886759]}, "properties" : {"id" : "04010155355989100000000", "lot_address" : "163 rue de l' Église", "ivp" : 7.4, "hlm_addresses" : ["163A rue de l' Église"], "num_dwellings" : 4}}, {"type" : "Feature", "geometry" : {"type":"Point","coordinates":[-66.492127446,49.125942549]}, "properties" : {"id" : "04037784335547900000000", "lot_address" : "120 3E Avenue Ouest", "ivp" : 19.1, "hlm_addresses" : ["120 3E Avenue Ouest"], "num_dwellings" : 20}}, {"type" : "Feature", "geometry" : {"type":"Point","coordinates":[-66.491520976,49.126787927]}, "properties" : {"id" : "04037784336977300000000", "lot_address" : "64 6E Rue Ouest", "ivp" : 7.9, "hlm_addresses" : ["64 6E Rue Ouest"], "num_dwellings" : 8}}, {"type" : "Feature", "geometry" : {"type":"Point","coordinates":[-66.487812029,49.127019387]}, "properties" : {"id" : "04037784366739500000000", "lot_address" : "54 3E Avenue Ouest", "ivp" : 5.7, "hlm_addresses" : ["54 3E Avenue Ouest"], "num_dwellings" : 9}}, {"type" : "Feature", "geometry" : {"type":"Point","coordinates":[-66.487876969,49.12769718]}, "properties" : {"id" : "04037784367617800000000", "lot_address" : "50 rue Dontigny", "ivp" : 13.8, "hlm_addresses" : ["50 rue Dontigny"], "num_dwellings" : 11}}, {"type" : "Feature", "geometry" : {"type":"Point","coordinates":[-66.480451128,49.122454768]}, "properties" : {"id" : "04037794322110200000000", "lot_address" : "104 rue de L'Escale", "ivp" : 3.2, "hlm_addresses" : ["104 rue de L'Escale"], "num_dwellings" : 13}}, {"type" : "Feature", "geometry" : {"type":"Point","coordinates":[-66.47946439,49.122769774]}, "properties" : {"id" : "04037794322833800000000", "lot_address" : "45 rue du Sieur-Des-Monts", "ivp" : 7.4, "hlm_addresses" : ["45 rue du Sieur-Des-Monts"], "num_dwellings" : 8}}, {"type" : "Feature", "geometry" : {"type":"Point","coordinates":[-66.47928268,49.122462819]}, "properties" : {"id" : "04037794322960400000000", "lot_address" : "47 rue du Sieur-Des-Monts", "ivp" : 10.8, "hlm_addresses" : ["47 rue du Sieur-Des-Monts"], "num_dwellings" : 8}}, {"type" : "Feature", "geometry" : {"type":"Point","coordinates":[-66.465518805,49.133086527]}, "properties" : {"id" : "04037804423859900000000", "lot_address" : "12 - 18 route Lavoie", "ivp" : 2.4, "hlm_addresses" : ["12 route Lavoie"], "num_dwellings" : 4}}, {"type" : "Feature", "geometry" : {"type":"Point","coordinates":[-66.465271255,49.132671845]}, "properties" : {"id" : "04037804433045300000000", "lot_address" : "22 - 34 route Lavoie", "ivp" : 1.6, "hlm_addresses" : ["22 route Lavoie"], "num_dwellings" : 6}}, {"type" : "Feature", "geometry" : {"type":"Point","coordinates":[-66.40931927,49.144060136]}, "properties" : {"id" : "04037844536687700000000", "lot_address" : "97 rue du Ruisseau", "ivp" : 4.4, "hlm_addresses" : ["97 rue du Ruisseau"], "num_dwellings" : 8}}, {"type" : "Feature", "geometry" : {"type":"Point","coordinates":[-66.409709609,49.144387569]}, "properties" : {"id" : "04037844537391300000000", "lot_address" : "95 rue du Ruisseau", "ivp" : 5.4, "hlm_addresses" : ["95 rue du Ruisseau"], "num_dwellings" : 8}}, {"type" : "Feature", "geometry" : {"type":"Point","coordinates":[-66.40655148,49.160823726]}, "properties" : {"id" : "04037844755434400000000", "lot_address" : "172 rue des Chevaliers", "ivp" : 8.4, "hlm_addresses" : ["172 rue des Chevaliers"], "num_dwellings" : 11}}, {"type" : "Feature", "geometry" : {"type":"Point","coordinates":[-66.706611094,49.089582475]}, "properties" : {"id" : "04047623961878900000000", "lot_address" : "37 - 39 rue Del-Val", "ivp" : 0.8, "hlm_addresses" : ["37 rue Del-Val"], "num_dwellings" : 2}}, {"type" : "Feature", "geometry" : {"type":"Point","coordinates":[-66.703522018,49.090400136]}, "properties" : {"id" : "04047623992057600000000", "lot_address" : "94 - 96 rue des Écoliers", "ivp" : 1.5, "hlm_addresses" : ["94 rue des Écoliers"], "num_dwellings" : 2}}, {"type" : "Feature", "geometry" : {"type":"Point","coordinates":[-66.697547217,49.091471886]}, "properties" : {"id" : "04047633933427900000000", "lot_address" : "51 - 53 rue des Écoliers", "ivp" : 2.9, "hlm_addresses" : ["53 rue des Écoliers"], "num_dwellings" : 2}}, {"type" : "Feature", "geometry" : {"type":"Point","coordinates":[-66.697089685,49.091798436]}, "properties" : {"id" : "04047633934780900000000", "lot_address" : "47 - 49 rue des Écoliers", "ivp" : 2.1, "hlm_addresses" : ["47 rue des Écoliers"], "num_dwellings" : 2}}, {"type" : "Feature", "geometry" : {"type":"Point","coordinates":[-66.696334392,49.091761494]}, "properties" : {"id" : "04047633943289900000000", "lot_address" : "6 - 12 rue Cassivi", "ivp" : 2.1, "hlm_addresses" : ["6 rue Cassivi"], "num_dwellings" : 4}}, {"type" : "Feature", "geometry" : {"type":"Point","coordinates":[-66.696731383,49.091939834]}, "properties" : {"id" : "04047633944042500000000", "lot_address" : "45 rue des Écoliers", "ivp" : 3.1, "hlm_addresses" : ["45 rue des Écoliers"], "num_dwellings" : 4}}, {"type" : "Feature", "geometry" : {"type":"Point","coordinates":[-66.696366074,49.092139578]}, "properties" : {"id" : "04047633944414600000000", "lot_address" : "1 - 3 rue Cassivi", "ivp" : 2.5, "hlm_addresses" : ["1 rue Cassivi"], "num_dwellings" : 6}}, {"type" : "Feature", "geometry" : {"type":"Point","coordinates":[-66.681416594,49.095278906]}, "properties" : {"id" : "04047644050740200000000", "lot_address" : "10 rue du Ruisseau", "ivp" : 4.2, "hlm_addresses" : ["10 rue du Ruisseau"], "num_dwellings" : 20}}, {"type" : "Feature", "geometry" : {"type":"Point","coordinates":[-65.290344757,48.034649934]}, "properties" : {"id" : "05032472150502200000000", "lot_address" : "161 avenue Loisel", "ivp" : 69.0, "hlm_addresses" : ["161 avenue Loisel"], "num_dwellings" : 8}}, {"type" : "Feature", "geometry" : {"type":"Point","coordinates":[-65.256828608,48.029115908]}, "properties" : {"id" : "05032482134591000000000", "lot_address" : "136 rue Legros", "ivp" : 17.6, "hlm_addresses" : ["136 rue Legros"], "num_dwellings" : 6}}, {"type" : "Feature", "geometry" : {"type":"Point","coordinates":[-65.256224196,48.029047932]}, "properties" : {"id" : "05032482144040200000000", "lot_address" : "128 rue Lemarquand", "ivp" : 25.4, "hlm_addresses" : ["128 rue Lemarquand"], "num_dwellings" : 30}}, {"type" : "Feature", "geometry" : {"type":"Point","coordinates":[-65.243508422,48.032512872]}, "properties" : {"id" : "05032492137567800000000", "lot_address" : "57 - 59 avenue Castilloux", "ivp" : 30.9, "hlm_addresses" : ["59 avenue Castilloux"], "num_dwellings" : 12}}, {"type" : "Feature", "geometry" : {"type":"Point","coordinates":[-65.243620093,48.032817961]}, "properties" : {"id" : "05032492138481200000000", "lot_address" : "155 - 165 rue Maldemay", "ivp" : 38.3, "hlm_addresses" : ["155 rue Maldemay"], "num_dwellings" : 6}}, {"type" : "Feature", "geometry" : {"type":"Point","coordinates":[-65.242557294,48.032581984]}, "properties" : {"id" : "05032492147278500000000", "lot_address" : "65 - 67 avenue Castilloux", "ivp" : 37.0, "hlm_addresses" : ["65 avenue Castilloux"], "num_dwellings" : 12}}, {"type" : "Feature", "geometry" : {"type":"Point","coordinates":[-65.493063791,48.048012219]}, "properties" : {"id" : "05045302377691100000000", "lot_address" : "117 - 119 avenue de Louisbourg", "ivp" : 27.3, "hlm_addresses" : ["117 avenue de Louisbourg", "119 avenue de Louisbourg"], "num_dwellings" : 30}}, {"type" : "Feature", "geometry" : {"type":"Point","coordinates":[-65.492408935,48.048395002]}, "properties" : {"id" : "05045302387185300000000", "lot_address" : "121 avenue de Louisbourg", "ivp" : 10.1, "hlm_addresses" : ["121 avenue de Louisbourg"], "num_dwellings" : 11}}, {"type" : "Feature", "geometry" : {"type":"Point","coordinates":[-65.488813718,48.050173723]}, "properties" : {"id" : "05045312309854700000000", "lot_address" : "137 avenue de Louisbourg", "ivp" : 9.1, "hlm_addresses" : ["137 avenue de Louisbourg"], "num_dwellings" : 8}}, {"type" : "Feature", "geometry" : {"type":"Point","coordinates":[-65.567272846,48.074339496]}, "properties" : {"id" : "05055252627771100000000", "lot_address" : "134 1 - 134 16 route Poirier", "ivp" : 7.3, "hlm_addresses" : ["134 route Poirier"], "num_dwellings" : 16}}, {"type" : "Feature", "geometry" : {"type":"Point","coordinates":[-65.680568749,48.102644324]}, "properties" : {"id" : "05060162989848200000000", "lot_address" : "5 Perron Est", "ivp" : 12.4, "hlm_addresses" : ["5 Perron Est"], "num_dwellings" : 10}}, {"type" : "Feature", "geometry" : {"type":"Point","coordinates":[-65.676545394,48.101696192]}, "properties" : {"id" : "05060172918827200000000", "lot_address" : "5 rue des Frenes", "ivp" : 7.2, "hlm_addresses" : ["5 rue des Frenes"], "num_dwellings" : 8}}, {"type" : "Feature", "geometry" : {"type":"Point","coordinates":[-65.629893185,48.188972951]}, "properties" : {"id" : "05065203975992300000000", "lot_address" : "130 rue Principale Ouest", "ivp" : 11.2, "hlm_addresses" : ["130 rue Principale Ouest"], "num_dwellings" : 10}}, {"type" : "Feature", "geometry" : {"type":"Point","coordinates":[-65.860352703,48.163157947]}, "properties" : {"id" : "05070033669142900000000", "lot_address" : "104 rue Robichaud", "ivp" : 21.3, "hlm_addresses" : ["104 rue Robichaud"], "num_dwellings" : 21}}, {"type" : "Feature", "geometry" : {"type":"Point","coordinates":[-65.860025968,48.163659448]}, "properties" : {"id" : "05070033669408600000000", "lot_address" : "108 rue Robichaud", "ivp" : 14.5, "hlm_addresses" : ["108 rue Robichaud"], "num_dwellings" : 8}}, {"type" : "Feature", "geometry" : {"type":"Point","coordinates":[-65.863638024,48.167087213]}, "properties" : {"id" : "05070033733787200000000", "lot_address" : "133 1 - 133 4 rue Robertson", "ivp" : 21.2, "hlm_addresses" : ["133 rue Robertson"], "num_dwellings" : 4}}, {"type" : "Feature", "geometry" : {"type":"Point","coordinates":[-65.863450042,48.167373939]}, "properties" : {"id" : "05070033734930400000000", "lot_address" : "135 1 - 135 4 rue Robertson", "ivp" : 15.6, "hlm_addresses" : ["135 rue Robertson"], "num_dwellings" : 4}}, {"type" : "Feature", "geometry" : {"type":"Point","coordinates":[-65.860470295,48.167200529]}, "properties" : {"id" : "05070033763158100000000", "lot_address" : "132 A - 132 D rue des Cedres", "ivp" : 11.0, "hlm_addresses" : ["132 rue des Cedres"], "num_dwellings" : 4}}, {"type" : "Feature", "geometry" : {"type":"Point","coordinates":[-65.859046886,48.165910702]}, "properties" : {"id" : "05070033772153400000000", "lot_address" : "146 - 150 avenue Terry-Fox", "ivp" : 7.8, "hlm_addresses" : ["146 avenue Terry-Fox"], "num_dwellings" : 18}}, {"type" : "Feature", "geometry" : {"type":"Point","coordinates":[-65.853883797,48.162636993]}, "properties" : {"id" : "05070043608956400000000", "lot_address" : "118 rue Ross", "ivp" : 18.1, "hlm_addresses" : ["118 rue Ross"], "num_dwellings" : 6}}, {"type" : "Feature", "geometry" : {"type":"Point","coordinates":[-65.990993,48.171681117]}, "properties" : {"id" : "06005173800248500000000", "lot_address" : "450 rue des Chardonnerets", "ivp" : 20.5, "hlm_addresses" : ["450 rue des Chardonnerets"], "num_dwellings" : 20}}, {"type" : "Feature", "geometry" : {"type":"Point","coordinates":[-66.113446688,48.104208171]}, "properties" : {"id" : "06013083004521200000000", "lot_address" : "24 rue Comeau", "ivp" : 7.0, "hlm_addresses" : ["24 rue Comeau"], "num_dwellings" : 11}}, {"type" : "Feature", "geometry" : {"type":"Point","coordinates":[-66.108716604,48.102179103]}, "properties" : {"id" : "06013083041089200000000", "lot_address" : "5 rue de la Fabrique", "ivp" : 15.9, "hlm_addresses" : ["5 rue de la Fabrique"], "num_dwellings" : 21}}, {"type" : "Feature", "geometry" : {"type":"Point","coordinates":[-66.224539429,48.11107681]}, "properties" : {"id" : "06013993170663200000000", "lot_address" : "100 rue Laviolette", "ivp" : 1.8, "hlm_addresses" : ["100 rue Laviolette"], "num_dwellings" : 10}}, {"type" : "Feature", "geometry" : {"type":"Point","coordinates":[-66.321598909,48.148461318]}, "properties" : {"id" : "06020923540747600000000", "lot_address" : "85 rue Arsenault", "ivp" : 28.9, "hlm_addresses" : ["85 rue Arsenault"], "num_dwellings" : 13}}, {"type" : "Feature", "geometry" : {"type":"Point","coordinates":[-66.701729195,48.028627513]}, "properties" : {"id" : "06030642133328700000000", "lot_address" : "12 rue Charles-Morin", "ivp" : 30.3, "hlm_addresses" : ["12 rue Charles-Morin"], "num_dwellings" : 6}}, {"type" : "Feature", "geometry" : {"type":"Point","coordinates":[-66.687574723,48.01845524]}, "properties" : {"id" : "06030652042006700000000", "lot_address" : "22 rue Lasalle", "ivp" : 9.2, "hlm_addresses" : ["22A rue Lasalle"], "num_dwellings" : 4}}, {"type" : "Feature", "geometry" : {"type":"Point","coordinates":[-66.681674948,48.01889562]}, "properties" : {"id" : "06030652083392100000000", "lot_address" : "47 rue Chaleur", "ivp" : 21.1, "hlm_addresses" : ["47 rue Chaleur"], "num_dwellings" : 21}}, {"type" : "Feature", "geometry" : {"type":"Point","coordinates":[-66.680740034,48.018234166]}, "properties" : {"id" : "06030652092104800000000", "lot_address" : "10 rue de la Petite-Rochelle", "ivp" : 9.6, "hlm_addresses" : ["10 rue de la Petite-Rochelle"], "num_dwellings" : 4}}, {"type" : "Feature", "geometry" : {"type":"Point","coordinates":[-66.954430915,47.973103937]}, "properties" : {"id" : "06045451550304900000000", "lot_address" : "18 rue de Chamonix", "ivp" : 0.1, "hlm_addresses" : ["18 rue de Chamonix"], "num_dwellings" : 11}}, {"type" : "Feature", "geometry" : {"type":"Point","coordinates":[-67.165101636,47.984250364]}, "properties" : {"id" : "06055291671979900000000", "lot_address" : "106 rue du College", "ivp" : 18.1, "hlm_addresses" : ["106 rue du College"], "num_dwellings" : 10}}, {"type" : "Feature", "geometry" : {"type":"Point","coordinates":[-67.162377797,47.982830248]}, "properties" : {"id" : "06055301600014200000000", "lot_address" : "102 rue Chabot", "ivp" : 17.4, "hlm_addresses" : ["102 rue Chabot"], "num_dwellings" : 6}}, {"type" : "Feature", "geometry" : {"type":"Point","coordinates":[-67.221570002,48.358252794]}, "properties" : {"id" : "07018255747326500000000", "lot_address" : "18 - 20 rue des Pins", "ivp" : 6.7, "hlm_addresses" : ["18 rue des Pins"], "num_dwellings" : 12}}, {"type" : "Feature", "geometry" : {"type":"Point","coordinates":[-67.220460196,48.358032558]}, "properties" : {"id" : "07018255757163700000000", "lot_address" : "16 rue des Pins", "ivp" : 3.2, "hlm_addresses" : ["16 rue des Pins"], "num_dwellings" : 15}}, {"type" : "Feature", "geometry" : {"type":"Point","coordinates":[-67.436431559,48.456987398]}, "properties" : {"id" : "07047096857010700000000", "lot_address" : "10 rue Georges-Étienne-Guérette", "ivp" : 1.3, "hlm_addresses" : ["10 rue Georges-Étienne-Guérette"], "num_dwellings" : 3}}, {"type" : "Feature", "geometry" : {"type":"Point","coordinates":[-67.436432855,48.457344077]}, "properties" : {"id" : "07047096857014700000000", "lot_address" : "37 - 38 rue Georges-Étienne-Guérette", "ivp" : 2.8, "hlm_addresses" : ["37 rue Georges-Étienne-Guérette"], "num_dwellings" : 2}}, {"type" : "Feature", "geometry" : {"type":"Point","coordinates":[-67.436040006,48.456981062]}, "properties" : {"id" : "07047096857290800000000", "lot_address" : "13 - 14 rue Georges-Étienne-Guérette", "ivp" : 2.4, "hlm_addresses" : ["13 rue Georges-Étienne-Guérette"], "num_dwellings" : 2}}, {"type" : "Feature", "geometry" : {"type":"Point","coordinates":[-67.43605675,48.457632434]}, "properties" : {"id" : "07047096857307400000000", "lot_address" : "33 - 34 rue Georges-Étienne-Guérette", "ivp" : 2.0, "hlm_addresses" : ["33 rue Georges-Étienne-Guérette"], "num_dwellings" : 2}}, {"type" : "Feature", "geometry" : {"type":"Point","coordinates":[-67.435283799,48.457697871]}, "properties" : {"id" : "07047096857899100000000", "lot_address" : "29 - 30 rue Georges-Étienne-Guérette", "ivp" : 2.3, "hlm_addresses" : ["29 rue Georges-Étienne-Guérette"], "num_dwellings" : 2}}, {"type" : "Feature", "geometry" : {"type":"Point","coordinates":[-67.425754973,48.469836373]}, "properties" : {"id" : "07047107021903700000000", "lot_address" : "114 rue du Pont", "ivp" : 9.1, "hlm_addresses" : ["114 rue du Pont"], "num_dwellings" : 10}}, {"type" : "Feature", "geometry" : {"type":"Point","coordinates":[-67.424604529,48.471904426]}, "properties" : {"id" : "07047107033736600000000", "lot_address" : "133 - 135 rue des Pins", "ivp" : 3.4, "hlm_addresses" : ["135 rue des Pins"], "num_dwellings" : 12}}, {"type" : "Feature", "geometry" : {"type":"Point","coordinates":[-67.422173226,48.468837034]}, "properties" : {"id" : "07047107050542600000000", "lot_address" : "50 - 60 rue Ludger-Leblanc Nord", "ivp" : 10.8, "hlm_addresses" : ["50 rue Ludger-Leblanc Nord", "60 rue Ludger-Leblanc Nord"], "num_dwellings" : 40}}, {"type" : "Feature", "geometry" : {"type":"Point","coordinates":[-67.349842084,48.417232844]}, "properties" : {"id" : "07057156492149600000000", "lot_address" : "29 rue Turcotte", "ivp" : 3.2, "hlm_addresses" : ["29 rue Turcotte"], "num_dwellings" : 8}}, {"type" : "Feature", "geometry" : {"type":"Point","coordinates":[-67.342584478,48.545038617]}, "properties" : {"id" : "07070167845220800000000", "lot_address" : "35 rue Saint-Jean", "ivp" : 6.9, "hlm_addresses" : ["35 rue Saint-Jean"], "num_dwellings" : 6}}, {"type" : "Feature", "geometry" : {"type":"Point","coordinates":[-67.41186439,48.615699615]}, "properties" : {"id" : "07075118623985600000000", "lot_address" : "55 rue Ouellet", "ivp" : 8.1, "hlm_addresses" : ["55 rue Ouellet"], "num_dwellings" : 6}}, {"type" : "Feature", "geometry" : {"type":"Point","coordinates":[-67.411560035,48.615923606]}, "properties" : {"id" : "07075118633208100000000", "lot_address" : "65 rue Ouellet", "ivp" : 12.1, "hlm_addresses" : ["65 rue Ouellet"], "num_dwellings" : 6}}, {"type" : "Feature", "geometry" : {"type":"Point","coordinates":[-67.550065168,48.533728439]}, "properties" : {"id" : "07080017712044100000000", "lot_address" : "10 rue Saint-Louis", "ivp" : 3.0, "hlm_addresses" : ["10 rue Saint-Louis"], "num_dwellings" : 10}}, {"type" : "Feature", "geometry" : {"type":"Point","coordinates":[-67.684367622,48.565403103]}, "properties" : {"id" : "07085918017908400000000", "lot_address" : "5 rue Keable", "ivp" : 3.3, "hlm_addresses" : ["5 rue Keable"], "num_dwellings" : 11}}, {"type" : "Feature", "geometry" : {"type":"Point","coordinates":[-67.683779485,48.565558127]}, "properties" : {"id" : "07085918027379300000000", "lot_address" : "5 A rue Keable", "ivp" : 3.7, "hlm_addresses" : ["5A rue Keable"], "num_dwellings" : 11}}, {"type" : "Feature", "geometry" : {"type":"Point","coordinates":[-67.850187025,48.552883994]}, "properties" : {"id" : "07095787994502700000000", "lot_address" : "8 rue du Hlm", "ivp" : 5.2, "hlm_addresses" : ["8 rue du Hlm"], "num_dwellings" : 11}}, {"type" : "Feature", "geometry" : {"type":"Point","coordinates":[-66.973030908,48.999438163]}, "properties" : {"id" : "08005432839043900000000", "lot_address" : "117 rue de la Villa", "ivp" : 3.1, "hlm_addresses" : ["117 rue de la Villa"], "num_dwellings" : 20}}, {"type" : "Feature", "geometry" : {"type":"Point","coordinates":[-67.339273628,48.900038016]}, "properties" : {"id" : "08023161759837500000000", "lot_address" : "207 - 209 rue Simard", "ivp" : 2.8, "hlm_addresses" : ["207¼ rue Simard"], "num_dwellings" : 10}}, {"type" : "Feature", "geometry" : {"type":"Point","coordinates":[-67.389185362,48.710099018]}, "properties" : {"id" : "08035129698555500000000", "lot_address" : "406 rue Ouellet", "ivp" : 6.9, "hlm_addresses" : ["406 rue Ouellet"], "num_dwellings" : 6}}, {"type" : "Feature", "geometry" : {"type":"Point","coordinates":[-67.551753659,48.842647974]}, "properties" : {"id" : "08053011105028900000000", "lot_address" : "123 - 127 rue Goyer", "ivp" : 14.2, "hlm_addresses" : ["123 rue Goyer"], "num_dwellings" : 20}}, {"type" : "Feature", "geometry" : {"type":"Point","coordinates":[-67.543733,48.844344016]}, "properties" : {"id" : "08053011157907800000000", "lot_address" : "263 boulevard Dion", "ivp" : 8.5, "hlm_addresses" : ["263 boulevard Dion"], "num_dwellings" : 4}}, {"type" : "Feature", "geometry" : {"type":"Point","coordinates":[-67.544221608,48.84464533]}, "properties" : {"id" : "08053011158551100000000", "lot_address" : "259 boulevard Dion", "ivp" : 5.6, "hlm_addresses" : ["259 boulevard Dion"], "num_dwellings" : 4}}, {"type" : "Feature", "geometry" : {"type":"Point","coordinates":[-67.543355569,48.844811428]}, "properties" : {"id" : "08053011168172800000000", "lot_address" : "262 boulevard Dion", "ivp" : 6.6, "hlm_addresses" : ["262 boulevard Dion"], "num_dwellings" : 4}}, {"type" : "Feature", "geometry" : {"type":"Point","coordinates":[-67.53775405,48.844317881]}, "properties" : {"id" : "08053021107337600000000", "lot_address" : "4 - 12 rue de l' Industrie", "ivp" : 17.0, "hlm_addresses" : ["4 rue de l' Industrie", "12 rue de l' Industrie", "8 rue de l' Industrie"], "num_dwellings" : 18}}, {"type" : "Feature", "geometry" : {"type":"Point","coordinates":[-67.53752784,48.843820273]}, "properties" : {"id" : "08053021107442000000000", "lot_address" : "21 rue de l' Industrie", "ivp" : 12.1, "hlm_addresses" : ["21 rue de l' Industrie"], "num_dwellings" : 6}}, {"type" : "Feature", "geometry" : {"type":"Point","coordinates":[-67.535646597,48.842840033]}, "properties" : {"id" : "08053021116841000000000", "lot_address" : "355 rue de la Gare", "ivp" : 7.7, "hlm_addresses" : ["355 rue de la Gare"], "num_dwellings" : 20}}, {"type" : "Feature", "geometry" : {"type":"Point","coordinates":[-67.5341959,48.845116626]}, "properties" : {"id" : "08053021128906200000000", "lot_address" : "245 - 247 rue Soucy", "ivp" : 11.6, "hlm_addresses" : ["245 rue Soucy"], "num_dwellings" : 12}}, {"type" : "Feature", "geometry" : {"type":"Point","coordinates":[-67.530900928,48.844548922]}, "properties" : {"id" : "08053021158310000000000", "lot_address" : "106 - 110 rue Saint-Jean", "ivp" : 13.7, "hlm_addresses" : ["110 rue Saint-Jean"], "num_dwellings" : 18}}, {"type" : "Feature", "geometry" : {"type":"Point","coordinates":[-67.701444948,48.785663664]}, "properties" : {"id" : "08073890592977200000000", "lot_address" : "8 rue de la Croix", "ivp" : 4.8, "hlm_addresses" : ["8 rue de la Croix"], "num_dwellings" : 11}}, {"type" : "Feature", "geometry" : {"type":"Point","coordinates":[-67.896976375,48.720344235]}, "properties" : {"id" : "08080759850906400000000", "lot_address" : "100 rue de l' Église", "ivp" : 1.2, "hlm_addresses" : ["100 rue de l' Église"], "num_dwellings" : 10}}, {"type" : "Feature", "geometry" : {"type":"Point","coordinates":[-67.879640396,48.445844993]}, "properties" : {"id" : "09005766775173600000000", "lot_address" : "58 rue Soucy", "ivp" : 19.7, "hlm_addresses" : ["58 rue Soucy"], "num_dwellings" : 8}}, {"type" : "Feature", "geometry" : {"type":"Point","coordinates":[-68.175233711,48.424443603]}, "properties" : {"id" : "09025546583310700000000", "lot_address" : "111 rue Harvey", "ivp" : 6.7, "hlm_addresses" : ["111 rue Harvey"], "num_dwellings" : 11}}, {"type" : "Feature", "geometry" : {"type":"Point","coordinates":[-68.246937822,48.494977296]}, "properties" : {"id" : "09030497361019900000000", "lot_address" : "111 rue Desgagnés", "ivp" : 5.3, "hlm_addresses" : ["111 rue Desgagnés"], "num_dwellings" : 11}}, {"type" : "Feature", "geometry" : {"type":"Point","coordinates":[-68.082402222,48.523950398]}, "properties" : {"id" : "09035617673841400000000", "lot_address" : "577 avenue de la Seigneurie", "ivp" : 6.0, "hlm_addresses" : ["577 avenue de la Seigneurie"], "num_dwellings" : 11}}, {"type" : "Feature", "geometry" : {"type":"Point","coordinates":[-67.96650935,48.682139609]}, "properties" : {"id" : "09048709348524500000000", "lot_address" : "15 rue du Couvent", "ivp" : 7.1, "hlm_addresses" : ["15 rue du Couvent"], "num_dwellings" : 11}}, {"type" : "Feature", "geometry" : {"type":"Point","coordinates":[-68.127005268,48.603454752]}, "properties" : {"id" : "09065588551657900000000", "lot_address" : "3 rue du Centre", "ivp" : 9.4, "hlm_addresses" : ["3 rue du Centre"], "num_dwellings" : 20}}, {"type" : "Feature", "geometry" : {"type":"Point","coordinates":[-68.203284576,48.591484796]}, "properties" : {"id" : "09077528398259800000000", "lot_address" : "1202 rue Poirier", "ivp" : 2.1, "hlm_addresses" : ["1202 rue Poirier"], "num_dwellings" : 11}}, {"type" : "Feature", "geometry" : {"type":"Point","coordinates":[-68.202965346,48.590956901]}, "properties" : {"id" : "09077528398484100000000", "lot_address" : "1206 rue Poirier", "ivp" : 1.4, "hlm_addresses" : ["1206 rue Poirier"], "num_dwellings" : 11}}, {"type" : "Feature", "geometry" : {"type":"Point","coordinates":[-68.20273136,48.590617406]}, "properties" : {"id" : "09077528398650200000000", "lot_address" : "1210 rue Poirier", "ivp" : 1.9, "hlm_addresses" : ["1210 rue Poirier"], "num_dwellings" : 11}}, {"type" : "Feature", "geometry" : {"type":"Point","coordinates":[-68.202587681,48.591065992]}, "properties" : {"id" : "09077528398765200000000", "lot_address" : "1204 rue Poirier", "ivp" : 1.5, "hlm_addresses" : ["1204 rue Poirier"], "num_dwellings" : 11}}, {"type" : "Feature", "geometry" : {"type":"Point","coordinates":[-68.202370066,48.590736772]}, "properties" : {"id" : "09077528398921500000000", "lot_address" : "1208 rue Poirier", "ivp" : 1.1, "hlm_addresses" : ["1208 rue Poirier"], "num_dwellings" : 11}}, {"type" : "Feature", "geometry" : {"type":"Point","coordinates":[-68.203482843,48.591849041]}, "properties" : {"id" : "09077528399113900000000", "lot_address" : "1198 rue Poirier", "ivp" : 3.1, "hlm_addresses" : ["1198 rue Poirier"], "num_dwellings" : 11}}, {"type" : "Feature", "geometry" : {"type":"Point","coordinates":[-68.203120771,48.591922368]}, "properties" : {"id" : "09077528399384800000000", "lot_address" : "1196 rue Poirier", "ivp" : 2.8, "hlm_addresses" : ["1196 rue Poirier"], "num_dwellings" : 11}}, {"type" : "Feature", "geometry" : {"type":"Point","coordinates":[-68.202918773,48.591589046]}, "properties" : {"id" : "09077528399521000000000", "lot_address" : "1200 rue Poirier", "ivp" : 1.6, "hlm_addresses" : ["1200 rue Poirier"], "num_dwellings" : 11}}, {"type" : "Feature", "geometry" : {"type":"Point","coordinates":[-68.194496348,48.5821838]}, "properties" : {"id" : "09077538258645800000000", "lot_address" : "1574 - 1592 rue Jogues", "ivp" : 6.4, "hlm_addresses" : ["1584 rue Jogues", "1588 rue Jogues", "1578 rue Jogues", "1574 rue Jogues"], "num_dwellings" : 10}}, {"type" : "Feature", "geometry" : {"type":"Point","coordinates":[-68.197161432,48.589077516]}, "properties" : {"id" : "09077538336752700000000", "lot_address" : "68 avenue Villeneuve", "ivp" : 5.1, "hlm_addresses" : ["68 avenue Villeneuve"], "num_dwellings" : 13}}, {"type" : "Feature", "geometry" : {"type":"Point","coordinates":[-68.19486125,48.59245208]}, "properties" : {"id" : "09077538359509800000000", "lot_address" : "75 avenue Beaupré", "ivp" : 6.7, "hlm_addresses" : ["75 avenue Beaupré"], "num_dwellings" : 40}}, {"type" : "Feature", "geometry" : {"type":"Point","coordinates":[-68.1999957,48.592556473]}, "properties" : {"id" : "09077538410691600000000", "lot_address" : "1221 - 1229 rue Blanchet", "ivp" : 3.7, "hlm_addresses" : ["1221 rue Blanchet"], "num_dwellings" : 5}}, {"type" : "Feature", "geometry" : {"type":"Point","coordinates":[-68.199752199,48.59274292]}, "properties" : {"id" : "09077538410873600000000", "lot_address" : "1220 - 1228 boulevard Jacques-Cartier", "ivp" : 2.8, "hlm_addresses" : ["1220 boulevard Jacques-Cartier"], "num_dwellings" : 5}}, {"type" : "Feature", "geometry" : {"type":"Point","coordinates":[-68.187390144,48.589124376]}, "properties" : {"id" : "09077548306952800000000", "lot_address" : "101 avenue de la Gare", "ivp" : 4.7, "hlm_addresses" : ["101 avenue de la Gare"], "num_dwellings" : 6}}, {"type" : "Feature", "geometry" : {"type":"Point","coordinates":[-68.186090488,48.58940976]}, "properties" : {"id" : "09077548316926100000000", "lot_address" : "121 avenue de la Gare", "ivp" : 3.6, "hlm_addresses" : ["121 avenue de la Gare"], "num_dwellings" : 15}}, {"type" : "Feature", "geometry" : {"type":"Point","coordinates":[-68.185253876,48.589699028]}, "properties" : {"id" : "09077548326529000000000", "lot_address" : "141 avenue de la Gare", "ivp" : 15.9, "hlm_addresses" : ["141 avenue de la Gare"], "num_dwellings" : 8}}, {"type" : "Feature", "geometry" : {"type":"Point","coordinates":[-68.339546306,48.530482769]}, "properties" : {"id" : "09092427782012100000000", "lot_address" : "91 rue Saint-Pierre Est", "ivp" : 17.4, "hlm_addresses" : ["91 rue Saint-Pierre Est"], "num_dwellings" : 20}}, {"type" : "Feature", "geometry" : {"type":"Point","coordinates":[-68.436580533,48.28735514]}, "properties" : {"id" : "10015355032046900000000", "lot_address" : "5 rue Paradis", "ivp" : 10.4, "hlm_addresses" : ["5 rue Paradis"], "num_dwellings" : 13}}, {"type" : "Feature", "geometry" : {"type":"Point","coordinates":[-68.422958116,48.479073699]}, "properties" : {"id" : "10030367155717300000000", "lot_address" : "30 rue du College", "ivp" : 1.9, "hlm_addresses" : ["30 rue du College"], "num_dwellings" : 20}}, {"type" : "Feature", "geometry" : {"type":"Point","coordinates":[-68.542975517,48.432051609]}, "properties" : {"id" : "10043276664265800000000", "lot_address" : "274 - 288 rue Parent Nord", "ivp" : 0.7, "hlm_addresses" : ["274 rue Parent Nord"], "num_dwellings" : 8}}, {"type" : "Feature", "geometry" : {"type":"Point","coordinates":[-68.544909544,48.442227664]}, "properties" : {"id" : "10043276745968500000000", "lot_address" : "385 - 395 rue Boulay", "ivp" : 3.6, "hlm_addresses" : ["385 rue Boulay", "389 rue Boulay", "393 rue Boulay"], "num_dwellings" : 87}}, {"type" : "Feature", "geometry" : {"type":"Point","coordinates":[-68.543799955,48.442855076]}, "properties" : {"id" : "10043276756786300000000", "lot_address" : "381 rue Boulay", "ivp" : 39.6, "hlm_addresses" : ["381 rue Boulay"], "num_dwellings" : 45}}, {"type" : "Feature", "geometry" : {"type":"Point","coordinates":[-68.518506502,48.433217046]}, "properties" : {"id" : "10043296645406400000000", "lot_address" : "275 rue Monseigneur-Plessis", "ivp" : 16.4, "hlm_addresses" : ["275 rue Monseigneur-Plessis"], "num_dwellings" : 25}}, {"type" : "Feature", "geometry" : {"type":"Point","coordinates":[-68.51764802,48.431764748]}, "properties" : {"id" : "10043296654020100000000", "lot_address" : "475 avenue Sirois", "ivp" : 2.1, "hlm_addresses" : ["475 avenue Sirois"], "num_dwellings" : 4}}, {"type" : "Feature", "geometry" : {"type":"Point","coordinates":[-68.51711191,48.432595372]}, "properties" : {"id" : "10043296654429300000000", "lot_address" : "467 rue Godbout", "ivp" : 11.8, "hlm_addresses" : ["467 rue Godbout"], "num_dwellings" : 22}}, {"type" : "Feature", "geometry" : {"type":"Point","coordinates":[-68.513606371,48.433765242]}, "properties" : {"id" : "10043296676352500000000", "lot_address" : "444 - 506 rue Melanson", "ivp" : 11.9, "hlm_addresses" : ["500 rue Melanson", "492 rue Melanson", "484 rue Melanson", "461 rue Melanson", "497A rue Melanson", "480 rue Melanson", "476 rue Melanson", "457 rue Melanson", "460 rue Melanson", "469 rue Melanson", "444 rue Melanson", "448 rue Melanson", "452 rue Melanson", "456 rue Melanson", "477 rue Melanson", "473 rue Melanson", "466 rue Melanson", "470 rue Melanson", "465 rue Melanson"], "num_dwellings" : 44}}, {"type" : "Feature", "geometry" : {"type":"Point","coordinates":[-68.524286451,48.442718456]}, "properties" : {"id" : "10043296706282700000000", "lot_address" : "135 rue Saint-Robert", "ivp" : 5.3, "hlm_addresses" : ["135 rue Saint-Robert"], "num_dwellings" : 30}}, {"type" : "Feature", "geometry" : {"type":"Point","coordinates":[-68.522661045,48.441957293]}, "properties" : {"id" : "10043296715404300000000", "lot_address" : "328 - 350 rue De Gaspé", "ivp" : 5.5, "hlm_addresses" : ["340 rue De Gaspé", "334 rue De Gaspé", "328 rue De Gaspé", "348 rue De Gaspé", "344 rue De Gaspé"], "num_dwellings" : 12}}, {"type" : "Feature", "geometry" : {"type":"Point","coordinates":[-68.519412957,48.437993672]}, "properties" : {"id" : "10043296730769800000000", "lot_address" : "400 rue de la Seigneuresse", "ivp" : 7.8, "hlm_addresses" : ["400 rue de la Seigneuresse"], "num_dwellings" : 6}}, {"type" : "Feature", "geometry" : {"type":"Point","coordinates":[-68.519946492,48.438516835]}, "properties" : {"id" : "10043296731425300000000", "lot_address" : "395 avenue Rouleau", "ivp" : 1.1, "hlm_addresses" : ["395 avenue Rouleau"], "num_dwellings" : 72}}, {"type" : "Feature", "geometry" : {"type":"Point","coordinates":[-68.519152261,48.438249626]}, "properties" : {"id" : "10043296731952500000000", "lot_address" : "401 avenue Rouleau", "ivp" : 6.7, "hlm_addresses" : ["401 avenue Rouleau"], "num_dwellings" : 6}}, {"type" : "Feature", "geometry" : {"type":"Point","coordinates":[-68.518148096,48.437191904]}, "properties" : {"id" : "10043296740740400000000", "lot_address" : "412 - 418 rue de la Seigneuresse", "ivp" : 15.4, "hlm_addresses" : ["414 rue de la Seigneuresse"], "num_dwellings" : 12}}, {"type" : "Feature", "geometry" : {"type":"Point","coordinates":[-68.517947069,48.438099485]}, "properties" : {"id" : "10043296741890600000000", "lot_address" : "406 - 412 avenue Rouleau", "ivp" : 3.1, "hlm_addresses" : ["406 avenue Rouleau"], "num_dwellings" : 4}}, {"type" : "Feature", "geometry" : {"type":"Point","coordinates":[-68.517946104,48.438910978]}, "properties" : {"id" : "10043296741909600000000", "lot_address" : "394 - 412 rue Lamoureux", "ivp" : 4.3, "hlm_addresses" : ["406 rue Lamoureux", "394 rue Lamoureux", "398 rue Lamoureux", "399 rue Lamoureux", "410 rue Lamoureux"], "num_dwellings" : 80}}, {"type" : "Feature", "geometry" : {"type":"Point","coordinates":[-68.506528375,48.456071786]}, "properties" : {"id" : "10043306930659400000000", "lot_address" : "344 - 362 rue Perreault", "ivp" : 15.7, "hlm_addresses" : ["355 rue Perreault", "360 rue Perreault", "347 rue Perreault", "356 rue Perreault", "344 rue Perreault"], "num_dwellings" : 10}}, {"type" : "Feature", "geometry" : {"type":"Point","coordinates":[-68.50684652,48.456647328]}, "properties" : {"id" : "10043306931375800000000", "lot_address" : "346 - 380 rue Digé", "ivp" : 20.8, "hlm_addresses" : ["361 rue Digé", "357 rue Digé", "346 rue Digé", "350 rue Digé", "362 rue Digé", "370 rue Digé", "374 rue Digé", "353 rue Digé", "349 rue Digé", "378 rue Digé", "354 rue Digé", "358 rue Digé", "366 rue Digé"], "num_dwellings" : 26}}, {"type" : "Feature", "geometry" : {"type":"Point","coordinates":[-68.505078762,48.456091769]}, "properties" : {"id" : "10043306940689500000000", "lot_address" : "343 - 383 rue Perreault", "ivp" : 9.0, "hlm_addresses" : ["351 rue Perreault", "359 rue Perreault", "375 rue Perreault", "343 rue Perreault", "365 rue Perreault", "367 rue Perreault", "371 rue Perreault", "348 rue Perreault", "352 rue Perreault"], "num_dwellings" : 21}}, {"type" : "Feature", "geometry" : {"type":"Point","coordinates":[-68.499787296,48.481834904]}, "properties" : {"id" : "10043307189965200000000", "lot_address" : "1 avenue 6E", "ivp" : 5.9, "hlm_addresses" : ["1 avenue 6E"], "num_dwellings" : 20}}, {"type" : "Feature", "geometry" : {"type":"Point","coordinates":[-68.461472211,48.363289739]}, "properties" : {"id" : "10043335857573100000000", "lot_address" : "15 rue Fillion", "ivp" : 4.3, "hlm_addresses" : ["15 rue Fillion"], "num_dwellings" : 20}}, {"type" : "Feature", "geometry" : {"type":"Point","coordinates":[-68.869295538,48.292513979]}, "properties" : {"id" : "10070035123062400000000", "lot_address" : "8 4 Ieme Avenue", "ivp" : 2.4, "hlm_addresses" : ["8 4 Ieme Avenue"], "num_dwellings" : 15}}, {"type" : "Feature", "geometry" : {"type":"Point","coordinates":[-69.096756168,47.92224013]}, "properties" : {"id" : "11005091062620400000000", "lot_address" : "24 rue Saint-Pierre", "ivp" : 13.8, "hlm_addresses" : ["24 rue Saint-Pierre"], "num_dwellings" : 10}}, {"type" : "Feature", "geometry" : {"type":"Point","coordinates":[-69.170112557,48.124731807]}, "properties" : {"id" : "11040033276931900000000", "lot_address" : "402 rue Richard", "ivp" : 7.7, "hlm_addresses" : ["402 rue Richard"], "num_dwellings" : 13}}, {"type" : "Feature", "geometry" : {"type":"Point","coordinates":[-69.167483614,48.127165859]}, "properties" : {"id" : "11040033298849300000000", "lot_address" : "323 rue Martin", "ivp" : 2.9, "hlm_addresses" : ["323 rue Martin"], "num_dwellings" : 3}}, {"type" : "Feature", "geometry" : {"type":"Point","coordinates":[-69.166111766,48.122553726]}, "properties" : {"id" : "11040043203958200000000", "lot_address" : "566 - 588 rue Richard", "ivp" : 3.6, "hlm_addresses" : ["574 rue Richard", "566 rue Richard", "584 rue Richard"], "num_dwellings" : 6}}, {"type" : "Feature", "geometry" : {"type":"Point","coordinates":[-69.16705063,48.126765078]}, "properties" : {"id" : "11040043208174900000000", "lot_address" : "222 rue de la Congrégation", "ivp" : 5.4, "hlm_addresses" : ["222 rue de la Congrégation"], "num_dwellings" : 10}}, {"type" : "Feature", "geometry" : {"type":"Point","coordinates":[-69.165626743,48.122089372]}, "properties" : {"id" : "11040043213323100000000", "lot_address" : "593 rue Caron", "ivp" : 3.6, "hlm_addresses" : ["593 rue Caron"], "num_dwellings" : 6}}, {"type" : "Feature", "geometry" : {"type":"Point","coordinates":[-69.165407673,48.122248729]}, "properties" : {"id" : "11040043213484900000000", "lot_address" : "604 rue Richard", "ivp" : 2.2, "hlm_addresses" : ["604 rue Richard"], "num_dwellings" : 8}}, {"type" : "Feature", "geometry" : {"type":"Point","coordinates":[-68.985135852,48.185527788]}, "properties" : {"id" : "11050943935818900000000", "lot_address" : "35 rue du Collège", "ivp" : 3.1, "hlm_addresses" : ["35 rue du Collège"], "num_dwellings" : 10}}, {"type" : "Feature", "geometry" : {"type":"Point","coordinates":[-69.020175952,47.895645064]}, "properties" : {"id" : "12005150743495900000000", "lot_address" : "108 rue Collin", "ivp" : 3.0, "hlm_addresses" : ["108 rue Collin"], "num_dwellings" : 13}}, {"type" : "Feature", "geometry" : {"type":"Point","coordinates":[-69.147934408,47.813571611]}, "properties" : {"id" : "12010069800586100000000", "lot_address" : "5 rue Principale Sud", "ivp" : 8.2, "hlm_addresses" : ["5 rue Principale Sud"], "num_dwellings" : 24}}, {"type" : "Feature", "geometry" : {"type":"Point","coordinates":[-69.480980198,47.762197356]}, "properties" : {"id" : "12015819119866100000000", "lot_address" : "18 route de l' Eglise", "ivp" : 5.3, "hlm_addresses" : ["18 route de l' Eglise"], "num_dwellings" : 10}}, {"type" : "Feature", "geometry" : {"type":"Point","coordinates":[-69.481661715,47.762709549]}, "properties" : {"id" : "12015819210341700000000", "lot_address" : "20 - 22 route de l' Eglise", "ivp" : 5.0, "hlm_addresses" : ["22 route de l' Eglise"], "num_dwellings" : 12}}, {"type" : "Feature", "geometry" : {"type":"Point","coordinates":[-69.327663454,47.896047649]}, "properties" : {"id" : "12030920740520400000000", "lot_address" : "292 - 296 rue de l' Eglise", "ivp" : 10.6, "hlm_addresses" : ["296 rue de l' Eglise", "292 rue de l' Eglise"], "num_dwellings" : 12}}, {"type" : "Feature", "geometry" : {"type":"Point","coordinates":[-69.432831708,47.914515626]}, "properties" : {"id" : "12065840859594500000000", "lot_address" : "7 rue de la Fabrique", "ivp" : 7.1, "hlm_addresses" : ["7 rue de la Fabrique"], "num_dwellings" : 13}}, {"type" : "Feature", "geometry" : {"type":"Point","coordinates":[-69.544988584,47.839065306]}, "properties" : {"id" : "12072760024824500000000", "lot_address" : "102 - 132 rue Bellevue", "ivp" : 4.3, "hlm_addresses" : ["102 rue Bellevue", "112 rue Bellevue", "122 rue Bellevue", "131 rue Bellevue"], "num_dwellings" : 19}}, {"type" : "Feature", "geometry" : {"type":"Point","coordinates":[-69.544420399,47.838767707]}, "properties" : {"id" : "12072760034251200000000", "lot_address" : "123 - 149 rue Bellevue", "ivp" : 5.8, "hlm_addresses" : ["132 rue Bellevue", "139 rue Bellevue", "123 rue Bellevue"], "num_dwellings" : 20}}, {"type" : "Feature", "geometry" : {"type":"Point","coordinates":[-69.543749375,47.839228056]}, "properties" : {"id" : "12072760034756400000000", "lot_address" : "111 - 121 rue Bellevue", "ivp" : 4.4, "hlm_addresses" : ["111 rue Bellevue"], "num_dwellings" : 6}}, {"type" : "Feature", "geometry" : {"type":"Point","coordinates":[-69.543369949,47.839486874]}, "properties" : {"id" : "12072760044039300000000", "lot_address" : "99 - 109 rue Bellevue", "ivp" : 3.9, "hlm_addresses" : ["99 rue Bellevue"], "num_dwellings" : 6}}, {"type" : "Feature", "geometry" : {"type":"Point","coordinates":[-69.546459532,47.82789527]}, "properties" : {"id" : "12072769912870200000000", "lot_address" : "60 rue des Cèdres", "ivp" : 6.4, "hlm_addresses" : ["60 rue des Cèdres"], "num_dwellings" : 20}}, {"type" : "Feature", "geometry" : {"type":"Point","coordinates":[-69.529336468,47.823975218]}, "properties" : {"id" : "12072779847779300000000", "lot_address" : "41 rue Fraserville", "ivp" : 4.6, "hlm_addresses" : ["41 rue Fraserville"], "num_dwellings" : 40}}, {"type" : "Feature", "geometry" : {"type":"Point","coordinates":[-69.534224901,47.831567186]}, "properties" : {"id" : "12072779906992200000000", "lot_address" : "95 - 97 rue Amyot", "ivp" : 2.0, "hlm_addresses" : ["95 rue Amyot"], "num_dwellings" : 34}}, {"type" : "Feature", "geometry" : {"type":"Point","coordinates":[-69.531158489,47.829348271]}, "properties" : {"id" : "12072779933308500000000", "lot_address" : "148 rue Amyot", "ivp" : 3.7, "hlm_addresses" : ["148 rue Amyot"], "num_dwellings" : 10}}, {"type" : "Feature", "geometry" : {"type":"Point","coordinates":[-69.519737236,47.826789542]}, "properties" : {"id" : "12072789911890400000000", "lot_address" : "51 - 55 rue Prévost", "ivp" : 8.9, "hlm_addresses" : ["51 rue Prévost"], "num_dwellings" : 3}}, {"type" : "Feature", "geometry" : {"type":"Point","coordinates":[-69.518599491,47.826206099]}, "properties" : {"id" : "12072789920754000000000", "lot_address" : "77 A rue Gilles", "ivp" : 3.1, "hlm_addresses" : ["77A rue Gilles"], "num_dwellings" : 15}}, {"type" : "Feature", "geometry" : {"type":"Point","coordinates":[-69.517499843,47.826572518]}, "properties" : {"id" : "12072789930578200000000", "lot_address" : "62 - 68 rue Horace-Hudon", "ivp" : 6.7, "hlm_addresses" : ["65 rue Horace-Hudon"], "num_dwellings" : 2}}, {"type" : "Feature", "geometry" : {"type":"Point","coordinates":[-68.644449696,47.544934313]}, "properties" : {"id" : "13005186769543700000000", "lot_address" : "884 - 886 8E Rue Ouest", "ivp" : 50.0, "hlm_addresses" : ["884 8E Rue Ouest", "886 8E Rue Ouest"], "num_dwellings" : 8}}, {"type" : "Feature", "geometry" : {"type":"Point","coordinates":[-68.642908118,47.545334398]}, "properties" : {"id" : "13005186779727500000000", "lot_address" : "865 - 882 8E Rue Ouest", "ivp" : 19.4, "hlm_addresses" : ["876 8E Rue Ouest", "873 8E Rue Ouest", "869 8E Rue Ouest", "865 8E Rue Ouest", "872 8E Rue Ouest", "868 8E Rue Ouest", "880 8E Rue Ouest"], "num_dwellings" : 14}}, {"type" : "Feature", "geometry" : {"type":"Point","coordinates":[-68.6428538,47.544655316]}, "properties" : {"id" : "13005186779770700000000", "lot_address" : "300 - 310 avenue Joly", "ivp" : 37.0, "hlm_addresses" : ["304 avenue Joly", "308 avenue Joly", "300 avenue Joly"], "num_dwellings" : 6}}, {"type" : "Feature", "geometry" : {"type":"Point","coordinates":[-68.64132895,47.545066413]}, "properties" : {"id" : "13005186789874700000000", "lot_address" : "400 - 415 avenue Morneau", "ivp" : 15.0, "hlm_addresses" : ["406 avenue Morneau", "400 avenue Morneau", "413 avenue Morneau", "412 avenue Morneau"], "num_dwellings" : 10}}, {"type" : "Feature", "geometry" : {"type":"Point","coordinates":[-68.645812096,47.545903571]}, "properties" : {"id" : "13005186850535000000000", "lot_address" : "665 - 776 6E Rue Ouest", "ivp" : 11.8, "hlm_addresses" : ["667 6E Rue Ouest", "665 6E Rue Ouest"], "num_dwellings" : 18}}, {"type" : "Feature", "geometry" : {"type":"Point","coordinates":[-68.641012441,47.548715848]}, "properties" : {"id" : "13005186893195500000000", "lot_address" : "163 7E Rue Est", "ivp" : 3.1, "hlm_addresses" : ["163 7E Rue Est"], "num_dwellings" : 13}}, {"type" : "Feature", "geometry" : {"type":"Point","coordinates":[-68.634048918,47.547162941]}, "properties" : {"id" : "13005196841427600000000", "lot_address" : "1122 - 1140 avenue Fougères", "ivp" : 1.6, "hlm_addresses" : ["1126 avenue Fougères", "1122 avenue Fougères", "1138 avenue Fougères"], "num_dwellings" : 10}}, {"type" : "Feature", "geometry" : {"type":"Point","coordinates":[-68.787645638,47.491793224]}, "properties" : {"id" : "13015076271779900000000", "lot_address" : "15 rue de la Caserne", "ivp" : 1.8, "hlm_addresses" : ["15 rue de la Caserne"], "num_dwellings" : 6}}, {"type" : "Feature", "geometry" : {"type":"Point","coordinates":[-68.890414318,47.393751176]}, "properties" : {"id" : "13020995184413500000000", "lot_address" : "362 rue Principale", "ivp" : 5.9, "hlm_addresses" : ["362 rue Principale"], "num_dwellings" : 6}}, {"type" : "Feature", "geometry" : {"type":"Point","coordinates":[-69.041139004,47.43096773]}, "properties" : {"id" : "13025885557488100000000", "lot_address" : "21 - 23 rue de la Villa", "ivp" : 0.8, "hlm_addresses" : ["21 rue de la Villa"], "num_dwellings" : 2}}, {"type" : "Feature", "geometry" : {"type":"Point","coordinates":[-69.041717671,47.438496104]}, "properties" : {"id" : "13025885656252200000000", "lot_address" : "24 - 51 carré  des Peupliers", "ivp" : 4.4, "hlm_addresses" : ["29 carré  des Peupliers", "28 carré  des Peupliers", "44 carré  des Peupliers", "40 carré  des Peupliers", "24 carré  des Peupliers", "32 carré  des Peupliers", "48 carré  des Peupliers"], "num_dwellings" : 18}}, {"type" : "Feature", "geometry" : {"type":"Point","coordinates":[-68.747625888,47.655727806]}, "properties" : {"id" : "13040118001906500000000", "lot_address" : "53 - 63 chemin Principal", "ivp" : 4.8, "hlm_addresses" : ["57 chemin Principal", "53 chemin Principal"], "num_dwellings" : 6}}, {"type" : "Feature", "geometry" : {"type":"Point","coordinates":[-68.6664368,47.665493358]}, "properties" : {"id" : "13040178121096400000000", "lot_address" : "5 - 7 rue de la Fabrique", "ivp" : 3.8, "hlm_addresses" : ["7 rue de la Fabrique", "5 rue de la Fabrique"], "num_dwellings" : 12}}, {"type" : "Feature", "geometry" : {"type":"Point","coordinates":[-68.644586893,47.729457316]}, "properties" : {"id" : "13045188892544500000000", "lot_address" : "21 rue des Érables", "ivp" : 6.6, "hlm_addresses" : ["21 rue des Érables"], "num_dwellings" : 14}}, {"type" : "Feature", "geometry" : {"type":"Point","coordinates":[-68.609272092,47.93760077]}, "properties" : {"id" : "13055211195295400000000", "lot_address" : "4 rue Saint-Marc", "ivp" : 3.8, "hlm_addresses" : ["4 rue Saint-Marc"], "num_dwellings" : 13}}, {"type" : "Feature", "geometry" : {"type":"Point","coordinates":[-68.677016566,47.988696326]}, "properties" : {"id" : "13060161793550900000000", "lot_address" : "71 rue Principale", "ivp" : 4.3, "hlm_addresses" : ["71 rue Principale"], "num_dwellings" : 6}}, {"type" : "Feature", "geometry" : {"type":"Point","coordinates":[-68.72127398,47.876270659]}, "properties" : {"id" : "13065130446024400000000", "lot_address" : "2 - 6 rue du Rocher", "ivp" : 8.9, "hlm_addresses" : ["6 rue du Rocher", "2 rue du Rocher", "4 rue du Rocher"], "num_dwellings" : 18}}, {"type" : "Feature", "geometry" : {"type":"Point","coordinates":[-68.719379689,47.879320596]}, "properties" : {"id" : "13065130550320300000000", "lot_address" : "25 rue Saint-Michel", "ivp" : 2.0, "hlm_addresses" : ["25 rue Saint-Michel"], "num_dwellings" : 20}}, {"type" : "Feature", "geometry" : {"type":"Point","coordinates":[-68.887451104,47.680926701]}, "properties" : {"id" : "13073008363221000000000", "lot_address" : "1 - 16 rue England", "ivp" : 6.1, "hlm_addresses" : ["13 rue England", "9 rue England", "6 rue England", "14 rue England", "1 rue England", "5 rue England", "2 rue England", "10 rue England"], "num_dwellings" : 20}}, {"type" : "Feature", "geometry" : {"type":"Point","coordinates":[-68.879960262,47.677351699]}, "properties" : {"id" : "13073018219924900000000", "lot_address" : "1 - 14 rue Louis-Passet", "ivp" : 5.0, "hlm_addresses" : ["14 rue Louis-Passet", "10 rue Louis-Passet", "2 rue Louis-Passet", "9 rue Louis-Passet", "5 rue Louis-Passet", "6 rue Louis-Passet", "1 rue Louis-Passet"], "num_dwellings" : 14}}, {"type" : "Feature", "geometry" : {"type":"Point","coordinates":[-68.880197213,47.679272959]}, "properties" : {"id" : "13073018310510100000000", "lot_address" : "1 - 28 rue Tardif", "ivp" : 4.3, "hlm_addresses" : ["26 rue Tardif", "18 rue Tardif", "11 rue Tardif", "2 rue Tardif", "14 rue Tardif", "1 rue Tardif", "10 rue Tardif", "22 rue Tardif", "7 rue Tardif", "6 rue Tardif"], "num_dwellings" : 21}}, {"type" : "Feature", "geometry" : {"type":"Point","coordinates":[-68.879279447,47.678079658]}, "properties" : {"id" : "13073018320463100000000", "lot_address" : "1 A - 3 D rue Malenfant", "ivp" : 8.2, "hlm_addresses" : ["1 rue Malenfant", "3 rue Malenfant"], "num_dwellings" : 8}}, {"type" : "Feature", "geometry" : {"type":"Point","coordinates":[-68.87916112,47.682170602]}, "properties" : {"id" : "13073018324608300000000", "lot_address" : "806 - 806 208 rue du Centre", "ivp" : 3.6, "hlm_addresses" : ["806 rue du Centre"], "num_dwellings" : 15}}, {"type" : "Feature", "geometry" : {"type":"Point","coordinates":[-68.878880266,47.68275649]}, "properties" : {"id" : "13073018325844700000000", "lot_address" : "807 101 - 807 115 rue Villeneuve", "ivp" : 2.8, "hlm_addresses" : ["807 rue Villeneuve"], "num_dwellings" : 15}}, {"type" : "Feature", "geometry" : {"type":"Point","coordinates":[-68.798709284,47.610845519]}, "properties" : {"id" : "13073077514754800000000", "lot_address" : "70 - 90 rue Voisine", "ivp" : 2.2, "hlm_addresses" : ["90 rue Voisine", "80 rue Voisine"], "num_dwellings" : 18}}, {"type" : "Feature", "geometry" : {"type":"Point","coordinates":[-68.79763319,47.615647105]}, "properties" : {"id" : "13073077529567900000000", "lot_address" : "642 - 644 rue Monseigneur-Gagnon", "ivp" : 2.7, "hlm_addresses" : ["644 rue Monseigneur-Gagnon", "642 rue Monseigneur-Gagnon"], "num_dwellings" : 12}}, {"type" : "Feature", "geometry" : {"type":"Point","coordinates":[-68.793506586,47.613710213]}, "properties" : {"id" : "13073077557355000000000", "lot_address" : "651 - 693 rue Monseigneur-Gagnon", "ivp" : 2.9, "hlm_addresses" : ["693 rue Monseigneur-Gagnon", "673 rue Monseigneur-Gagnon", "685 rue Monseigneur-Gagnon", "651 rue Monseigneur-Gagnon", "681 rue Monseigneur-Gagnon", "677 rue Monseigneur-Gagnon", "661 rue Monseigneur-Gagnon", "657 rue Monseigneur-Gagnon", "669 rue Monseigneur-Gagnon", "665 rue Monseigneur-Gagnon"], "num_dwellings" : 30}}, {"type" : "Feature", "geometry" : {"type":"Point","coordinates":[-68.980502356,47.669882223]}, "properties" : {"id" : "13080938262265700000000", "lot_address" : "51 rue Saint-Louis", "ivp" : 2.5, "hlm_addresses" : ["51 rue Saint-Louis"], "num_dwellings" : 11}}, {"type" : "Feature", "geometry" : {"type":"Point","coordinates":[-69.229468061,47.464247041]}, "properties" : {"id" : "13095005951811700000000", "lot_address" : "1318 chemin Guérette", "ivp" : 7.7, "hlm_addresses" : ["1318 chemin Guérette"], "num_dwellings" : 5}}, {"type" : "Feature", "geometry" : {"type":"Point","coordinates":[-69.154010484,47.453004989]}, "properties" : {"id" : "13095065729886100000000", "lot_address" : "483 rue de la Plaine", "ivp" : 2.6, "hlm_addresses" : ["483 rue de la Plaine"], "num_dwellings" : 5}}, {"type" : "Feature", "geometry" : {"type":"Point","coordinates":[-69.149265447,47.458339618]}, "properties" : {"id" : "13095065865396200000000", "lot_address" : "463 - 471 rue du Coteau", "ivp" : 8.6, "hlm_addresses" : ["470 rue du Coteau", "471 rue du Coteau", "466 rue du Coteau", "463 rue du Coteau", "465 rue du Coteau", "467 rue du Coteau", "469 rue du Coteau"], "num_dwellings" : 16}}, {"type" : "Feature", "geometry" : {"type":"Point","coordinates":[-69.290322315,47.494022057]}, "properties" : {"id" : "13095956293455200000000", "lot_address" : "444 - 450 rue des Pignons", "ivp" : 10.4, "hlm_addresses" : ["450 rue des Pignons", "448 rue des Pignons", "446 rue des Pignons", "444 rue des Pignons"], "num_dwellings" : 8}}, {"type" : "Feature", "geometry" : {"type":"Point","coordinates":[-69.28163953,47.490600476]}, "properties" : {"id" : "13095966169147300000000", "lot_address" : "471 rue Monette", "ivp" : 4.3, "hlm_addresses" : ["471 rue Monette"], "num_dwellings" : 5}}, {"type" : "Feature", "geometry" : {"type":"Point","coordinates":[-69.855089189,47.442454983]}, "properties" : {"id" : "14005535641381300000000", "lot_address" : "13 rue de la Fabrique", "ivp" : 13.6, "hlm_addresses" : ["13 rue de la Fabrique"], "num_dwellings" : 15}}, {"type" : "Feature", "geometry" : {"type":"Point","coordinates":[-69.802520958,47.530991815]}, "properties" : {"id" : "14018576539149000000000", "lot_address" : "450 rue Notre-Dame", "ivp" : 7.0, "hlm_addresses" : ["450 rue Notre-Dame"], "num_dwellings" : 10}}, {"type" : "Feature", "geometry" : {"type":"Point","coordinates":[-69.80220906,47.530184345]}, "properties" : {"id" : "14018576539380000000000", "lot_address" : "607 avenue Martin", "ivp" : 2.2, "hlm_addresses" : ["607 avenue Martin"], "num_dwellings" : 50}}, {"type" : "Feature", "geometry" : {"type":"Point","coordinates":[-69.728383057,47.589517799]}, "properties" : {"id" : "14025627285274600000000", "lot_address" : "703 rue du Couvent", "ivp" : 1.6, "hlm_addresses" : ["703 rue du Couvent"], "num_dwellings" : 6}}, {"type" : "Feature", "geometry" : {"type":"Point","coordinates":[-69.621196798,47.685817236]}, "properties" : {"id" : "14035708373683900000000", "lot_address" : "710 rue Beauséjour", "ivp" : 3.3, "hlm_addresses" : ["710 rue Beauséjour"], "num_dwellings" : 15}}, {"type" : "Feature", "geometry" : {"type":"Point","coordinates":[-69.869357967,47.566381847]}, "properties" : {"id" : "14050526928518100000000", "lot_address" : "80 avenue Morel", "ivp" : 1.0, "hlm_addresses" : ["80 avenue Morel"], "num_dwellings" : 11}}, {"type" : "Feature", "geometry" : {"type":"Point","coordinates":[-69.883864649,47.465946849]}, "properties" : {"id" : "14060515827470700000000", "lot_address" : "10 rue Chamberland", "ivp" : 0.9, "hlm_addresses" : ["10 rue Chamberland"], "num_dwellings" : 13}}, {"type" : "Feature", "geometry" : {"type":"Point","coordinates":[-69.944472458,47.412358267]}, "properties" : {"id" : "14070465277211500000000", "lot_address" : "31 rue Caron", "ivp" : 1.3, "hlm_addresses" : ["31 rue Caron"], "num_dwellings" : 13}}, {"type" : "Feature", "geometry" : {"type":"Point","coordinates":[-69.923988305,47.379342283]}, "properties" : {"id" : "14075484920945600000000", "lot_address" : "44 rue Principale", "ivp" : 5.0, "hlm_addresses" : ["44 rue Principale"], "num_dwellings" : 10}}, {"type" : "Feature", "geometry" : {"type":"Point","coordinates":[-70.033120691,47.372403438]}, "properties" : {"id" : "14085404802533100000000", "lot_address" : "300 - 310 avenue du Domaine-Lacombe", "ivp" : 9.0, "hlm_addresses" : ["310 avenue du Domaine-Lacombe", "300 avenue du Domaine-Lacombe"], "num_dwellings" : 52}}, {"type" : "Feature", "geometry" : {"type":"Point","coordinates":[-70.162959575,47.652157247]}, "properties" : {"id" : "15013307912197800000000", "lot_address" : "145 - 219 boulevard Kane", "ivp" : 11.4, "hlm_addresses" : ["205 boulevard Kane", "185 boulevard Kane", "165 boulevard Kane", "217 boulevard Kane"], "num_dwellings" : 8}}, {"type" : "Feature", "geometry" : {"type":"Point","coordinates":[-70.159468157,47.651383662]}, "properties" : {"id" : "15013307931898800000000", "lot_address" : "122 - 160 boulevard Kane", "ivp" : 12.1, "hlm_addresses" : ["150 boulevard Kane", "138 boulevard Kane", "126 boulevard Kane", "122 boulevard Kane", "130 boulevard Kane", "134 boulevard Kane", "145 boulevard Kane"], "num_dwellings" : 22}}, {"type" : "Feature", "geometry" : {"type":"Point","coordinates":[-70.145075029,47.636221348]}, "properties" : {"id" : "15013317744849400000000", "lot_address" : "7 rue Warren", "ivp" : 20.6, "hlm_addresses" : ["7 rue Warren"], "num_dwellings" : 11}}, {"type" : "Feature", "geometry" : {"type":"Point","coordinates":[-70.149007552,47.65336604]}, "properties" : {"id" : "15013317914642200000000", "lot_address" : "545 boulevard De Comporte", "ivp" : 18.7, "hlm_addresses" : ["545 boulevard De Comporte"], "num_dwellings" : 15}}, {"type" : "Feature", "geometry" : {"type":"Point","coordinates":[-70.229943647,47.693387308]}, "properties" : {"id" : "15035258308593200000000", "lot_address" : "7 rue Dion", "ivp" : 12.1, "hlm_addresses" : ["7 rue Dion"], "num_dwellings" : 20}}, {"type" : "Feature", "geometry" : {"type":"Point","coordinates":[-69.880067897,47.836417276]}, "properties" : {"id" : "15058519928049500000000", "lot_address" : "403 rue Cinq-Mars", "ivp" : 1.7, "hlm_addresses" : ["403 rue Cinq-Mars"], "num_dwellings" : 10}}, {"type" : "Feature", "geometry" : {"type":"Point","coordinates":[-70.511706036,47.452238644]}, "properties" : {"id" : "16013035699179900000000", "lot_address" : "85 rue Tremsim", "ivp" : 18.7, "hlm_addresses" : ["85 rue Tremsim"], "num_dwellings" : 10}}, {"type" : "Feature", "geometry" : {"type":"Point","coordinates":[-70.509770735,47.442995418]}, "properties" : {"id" : "16013045509637000000000", "lot_address" : "21 - 37 rue Forget", "ivp" : 47.9, "hlm_addresses" : ["24 rue Forget", "29 rue Forget"], "num_dwellings" : 6}}, {"type" : "Feature", "geometry" : {"type":"Point","coordinates":[-70.509149171,47.443065142]}, "properties" : {"id" : "16013045519098300000000", "lot_address" : "16 - 26 rue Forget", "ivp" : 65.1, "hlm_addresses" : ["20 rue Forget", "16 rue Forget", "21 rue Forget"], "num_dwellings" : 8}}, {"type" : "Feature", "geometry" : {"type":"Point","coordinates":[-70.507593042,47.444808785]}, "properties" : {"id" : "16013045621297900000000", "lot_address" : "12 rue de la Tannerie", "ivp" : 25.4, "hlm_addresses" : ["12 rue de la Tannerie"], "num_dwellings" : 20}}, {"type" : "Feature", "geometry" : {"type":"Point","coordinates":[-70.507923671,47.445182014]}, "properties" : {"id" : "16013045622051500000000", "lot_address" : "14 rue de la Tannerie", "ivp" : 6.8, "hlm_addresses" : ["14 rue de la Tannerie"], "num_dwellings" : 12}}, {"type" : "Feature", "geometry" : {"type":"Point","coordinates":[-69.786769782,46.962825825]}, "properties" : {"id" : "17010590208784100000000", "lot_address" : "237 rue du Foyer Nord", "ivp" : 4.3, "hlm_addresses" : ["237 rue du Foyer Nord"], "num_dwellings" : 21}}, {"type" : "Feature", "geometry" : {"type":"Point","coordinates":[-69.779573645,46.963925975]}, "properties" : {"id" : "17010590269236700000000", "lot_address" : "87 rue Thibodeau", "ivp" : 8.3, "hlm_addresses" : ["87 rue Thibodeau"], "num_dwellings" : 10}}, {"type" : "Feature", "geometry" : {"type":"Point","coordinates":[-69.898867895,46.865113834]}, "properties" : {"id" : "17015509169300800000000", "lot_address" : "7 rue de l' Eglise", "ivp" : 9.2, "hlm_addresses" : ["7 rue de l' Eglise"], "num_dwellings" : 10}}, {"type" : "Feature", "geometry" : {"type":"Point","coordinates":[-70.062155667,46.899051085]}, "properties" : {"id" : "17020389515609800000000", "lot_address" : "9 rue des Loisirs", "ivp" : 13.9, "hlm_addresses" : ["9 rue des Loisirs"], "num_dwellings" : 5}}, {"type" : "Feature", "geometry" : {"type":"Point","coordinates":[-69.951037152,46.966297958]}, "properties" : {"id" : "17025460351742600000000", "lot_address" : "2 A - 2 F rue Gagnon", "ivp" : 7.7, "hlm_addresses" : ["2 rue Gagnon"], "num_dwellings" : 6}}, {"type" : "Feature", "geometry" : {"type":"Point","coordinates":[-69.92643204,47.055540131]}, "properties" : {"id" : "17030481330746000000000", "lot_address" : "15 rue du College", "ivp" : 9.5, "hlm_addresses" : ["15 rue du College"], "num_dwellings" : 10}}, {"type" : "Feature", "geometry" : {"type":"Point","coordinates":[-69.985880679,47.092446833]}, "properties" : {"id" : "17035431781303100000000", "lot_address" : "949 rue des Saules", "ivp" : 8.3, "hlm_addresses" : ["949 rue des Saules"], "num_dwellings" : 13}}, {"type" : "Feature", "geometry" : {"type":"Point","coordinates":[-70.131681398,47.193846144]}, "properties" : {"id" : "17040322873094300000000", "lot_address" : "14 rue de la Riviere", "ivp" : 8.1, "hlm_addresses" : ["14 rue de la Riviere"], "num_dwellings" : 5}}, {"type" : "Feature", "geometry" : {"type":"Point","coordinates":[-70.217399691,47.178802621]}, "properties" : {"id" : "17055262626204100000000", "lot_address" : "15 101 - 15 206 rue des Loisirs", "ivp" : 5.4, "hlm_addresses" : ["15 rue des Loisirs"], "num_dwellings" : 11}}, {"type" : "Feature", "geometry" : {"type":"Point","coordinates":[-70.136315232,47.27916975]}, "properties" : {"id" : "17060323738191800000000", "lot_address" : "481 rue Principale", "ivp" : 7.2, "hlm_addresses" : ["481 rue Principale"], "num_dwellings" : 11}}, {"type" : "Feature", "geometry" : {"type":"Point","coordinates":[-70.182222428,47.309962363]}, "properties" : {"id" : "17065284182272500000000", "lot_address" : "105 - 125 rue Pelletier", "ivp" : 3.4, "hlm_addresses" : ["105 rue Pelletier"], "num_dwellings" : 12}}, {"type" : "Feature", "geometry" : {"type":"Point","coordinates":[-70.262429769,47.214417168]}, "properties" : {"id" : "17070223075908000000000", "lot_address" : "54 rue Gerard-Ouellet", "ivp" : 4.3, "hlm_addresses" : ["54 rue Gerard-Ouellet"], "num_dwellings" : 11}}, {"type" : "Feature", "geometry" : {"type":"Point","coordinates":[-70.262464671,47.213915395]}, "properties" : {"id" : "17070223075933800000000", "lot_address" : "51 rue Perrault", "ivp" : 6.0, "hlm_addresses" : ["51 rue Perrault"], "num_dwellings" : 6}}, {"type" : "Feature", "geometry" : {"type":"Point","coordinates":[-70.261991765,47.214244973]}, "properties" : {"id" : "17070223085246800000000", "lot_address" : "57 rue Perrault", "ivp" : 2.4, "hlm_addresses" : ["57 rue Perrault"], "num_dwellings" : 6}}, {"type" : "Feature", "geometry" : {"type":"Point","coordinates":[-70.261362524,47.214833038]}, "properties" : {"id" : "17070223086753500000000", "lot_address" : "328 - 342 rue Jacques-Chouinard", "ivp" : 1.5, "hlm_addresses" : ["331 rue Jacques-Chouinard", "332 rue Jacques-Chouinard", "335 rue Jacques-Chouinard", "340 rue Jacques-Chouinard"], "num_dwellings" : 8}}, {"type" : "Feature", "geometry" : {"type":"Point","coordinates":[-70.260869182,47.215194862]}, "properties" : {"id" : "17070223096127500000000", "lot_address" : "323 - 345 rue Jacques-Chouinard", "ivp" : 0.7, "hlm_addresses" : ["328 rue Jacques-Chouinard", "336 rue Jacques-Chouinard", "323 rue Jacques-Chouinard", "327 rue Jacques-Chouinard", "339 rue Jacques-Chouinard", "343 rue Jacques-Chouinard"], "num_dwellings" : 12}}, {"type" : "Feature", "geometry" : {"type":"Point","coordinates":[-70.36983981,47.126964494]}, "properties" : {"id" : "17078142068754800000000", "lot_address" : "53 rue Giard", "ivp" : 6.9, "hlm_addresses" : ["53 rue Giard"], "num_dwellings" : 10}}, {"type" : "Feature", "geometry" : {"type":"Point","coordinates":[-70.349298119,47.105763006]}, "properties" : {"id" : "17078161824389400000000", "lot_address" : "112 rue 7E", "ivp" : 8.5, "hlm_addresses" : ["112 rue 7E"], "num_dwellings" : 13}}, {"type" : "Feature", "geometry" : {"type":"Point","coordinates":[-70.337067985,47.085226576]}, "properties" : {"id" : "17078171612711300000000", "lot_address" : "58 chemin Lamartine Ouest", "ivp" : 7.9, "hlm_addresses" : ["58 chemin Lamartine Ouest"], "num_dwellings" : 10}}, {"type" : "Feature", "geometry" : {"type":"Point","coordinates":[-70.145054916,46.656667907]}, "properties" : {"id" : "18015316896633800000000", "lot_address" : "31 rue Principale Est", "ivp" : 8.1, "hlm_addresses" : ["31 rue Principale Est"], "num_dwellings" : 10}}, {"type" : "Feature", "geometry" : {"type":"Point","coordinates":[-70.555002169,46.98171396]}, "properties" : {"id" : "18050000467190100000000", "lot_address" : "55 avenue de la Fabrique", "ivp" : 2.6, "hlm_addresses" : ["55 avenue de la Fabrique"], "num_dwellings" : 51}}, {"type" : "Feature", "geometry" : {"type":"Point","coordinates":[-70.549695659,46.978878452]}, "properties" : {"id" : "18050010403207900000000", "lot_address" : "250 avenue Sainte-Anne", "ivp" : 7.5, "hlm_addresses" : ["250 avenue Sainte-Anne"], "num_dwellings" : 8}}, {"type" : "Feature", "geometry" : {"type":"Point","coordinates":[-70.730180384,46.926739451]}, "properties" : {"id" : "18065879826710800000000", "lot_address" : "25 boulevard Blais Est", "ivp" : 6.1, "hlm_addresses" : ["25 boulevard Blais Est"], "num_dwellings" : 10}}, {"type" : "Feature", "geometry" : {"type":"Point","coordinates":[-70.44959039,46.677751245]}, "properties" : {"id" : "19005087069570700000000", "lot_address" : "1515 rue des Loisirs", "ivp" : 12.6, "hlm_addresses" : ["1515 rue des Loisirs"], "num_dwellings" : 10}}, {"type" : "Feature", "geometry" : {"type":"Point","coordinates":[-70.544025901,46.619412986]}, "properties" : {"id" : "19010016444282300000000", "lot_address" : "4332 rue Principale", "ivp" : 3.4, "hlm_addresses" : ["4332 rue Principale"], "num_dwellings" : 10}}, {"type" : "Feature", "geometry" : {"type":"Point","coordinates":[-70.660784915,46.549788234]}, "properties" : {"id" : "19015925646779600000000", "lot_address" : "86 rue Principale", "ivp" : 5.2, "hlm_addresses" : ["86 rue Principale"], "num_dwellings" : 6}}, {"type" : "Feature", "geometry" : {"type":"Point","coordinates":[-70.621825265,46.479891974]}, "properties" : {"id" : "19020954849452100000000", "lot_address" : "20 rue Mathieu", "ivp" : 1.1, "hlm_addresses" : ["20 rue Mathieu"], "num_dwellings" : 10}}, {"type" : "Feature", "geometry" : {"type":"Point","coordinates":[-70.654005672,46.622749697]}, "properties" : {"id" : "19030936408140900000000", "lot_address" : "160 - 170 chemin Métivier", "ivp" : 3.9, "hlm_addresses" : ["160 chemin Métivier", "170 chemin Métivier"], "num_dwellings" : 24}}, {"type" : "Feature", "geometry" : {"type":"Point","coordinates":[-70.722019375,46.726905146]}, "properties" : {"id" : "19045877683228600000000", "lot_address" : "926 rue de l' Église Est", "ivp" : 12.6, "hlm_addresses" : ["926 rue de l' Église Est"], "num_dwellings" : 10}}, {"type" : "Feature", "geometry" : {"type":"Point","coordinates":[-70.970081397,46.629892656]}, "properties" : {"id" : "19062686586019600000000", "lot_address" : "75 rue Provencher", "ivp" : 5.7, "hlm_addresses" : ["75 rue Provencher"], "num_dwellings" : 20}}, {"type" : "Feature", "geometry" : {"type":"Point","coordinates":[-71.065764563,46.6893098]}, "properties" : {"id" : "19068617253274600000000", "lot_address" : "105 rue Allen", "ivp" : 4.8, "hlm_addresses" : ["105 rue Allen"], "num_dwellings" : 46}}, {"type" : "Feature", "geometry" : {"type":"Point","coordinates":[-70.893617935,46.711666619]}, "properties" : {"id" : "19075747477045100000000", "lot_address" : "93 1 - 93 13 rue Saint-Étienne", "ivp" : 8.0, "hlm_addresses" : ["93 rue Saint-Étienne"], "num_dwellings" : 13}}, {"type" : "Feature", "geometry" : {"type":"Point","coordinates":[-70.88783927,46.712843126]}, "properties" : {"id" : "19075757418498000000000", "lot_address" : "27 rue des Aînés", "ivp" : 15.7, "hlm_addresses" : ["27 rue des Aînés"], "num_dwellings" : 10}}, {"type" : "Feature", "geometry" : {"type":"Point","coordinates":[-70.883561763,46.713100378]}, "properties" : {"id" : "19075757449750700000000", "lot_address" : "283 - 302 rue Lacroix", "ivp" : 8.8, "hlm_addresses" : ["285 rue Lacroix", "293 rue Lacroix", "291 rue Lacroix", "292 rue Lacroix", "300 rue Lacroix", "296 rue Lacroix"], "num_dwellings" : 12}}, {"type" : "Feature", "geometry" : {"type":"Point","coordinates":[-70.758434134,46.795013895]}, "properties" : {"id" : "19082858309727300000000", "lot_address" : "59 rue Pelchat", "ivp" : 6.7, "hlm_addresses" : ["59 rue Pelchat"], "num_dwellings" : 15}}, {"type" : "Feature", "geometry" : {"type":"Point","coordinates":[-70.758929502,46.795362804]}, "properties" : {"id" : "19082858400341200000000", "lot_address" : "10 avenue Beaudoin", "ivp" : 6.1, "hlm_addresses" : ["10 avenue Beaudoin"], "num_dwellings" : 6}}, {"type" : "Feature", "geometry" : {"type":"Point","coordinates":[-70.857086358,46.832747596]}, "properties" : {"id" : "19090778851609600000000", "lot_address" : "33 rue L'Heureux", "ivp" : 6.3, "hlm_addresses" : ["33 rue L'Heureux"], "num_dwellings" : 10}}, {"type" : "Feature", "geometry" : {"type":"Point","coordinates":[-70.940760594,46.773754622]}, "properties" : {"id" : "19097718116377500000000", "lot_address" : "2835 avenue Royale", "ivp" : 5.3, "hlm_addresses" : ["2835 avenue Royale"], "num_dwellings" : 24}}, {"type" : "Feature", "geometry" : {"type":"Point","coordinates":[-71.012811259,46.829782273]}, "properties" : {"id" : "19105658769813800000000", "lot_address" : "2 - 2 10 boulevard Mercier", "ivp" : 7.3, "hlm_addresses" : ["2 boulevard Mercier"], "num_dwellings" : 10}}, {"type" : "Feature", "geometry" : {"type":"Point","coordinates":[-70.908294606,46.873517029]}, "properties" : {"id" : "19110739267724900000000", "lot_address" : "127 route 132 Est", "ivp" : 9.0, "hlm_addresses" : ["127 route 132 Est"], "num_dwellings" : 10}}, {"type" : "Feature", "geometry" : {"type":"Point","coordinates":[-70.824705494,46.89295299]}, "properties" : {"id" : "19117809408567800000000", "lot_address" : "345 rue Rainville", "ivp" : 2.4, "hlm_addresses" : ["345 rue Rainville"], "num_dwellings" : 20}}, {"type" : "Feature", "geometry" : {"type":"Point","coordinates":[-70.9521884,47.014086914]}, "properties" : {"id" : "21030700843228900000000", "lot_address" : "20 - 56 rue Lachance", "ivp" : 40.7, "hlm_addresses" : ["24 rue Lachance", "36 rue Lachance", "32 rue Lachance", "56 rue Lachance", "44 rue Lachance"], "num_dwellings" : 10}}, {"type" : "Feature", "geometry" : {"type":"Point","coordinates":[-70.921666654,47.02710526]}, "properties" : {"id" : "21030720978462600000000", "lot_address" : "10270 avenue Royale", "ivp" : 9.7, "hlm_addresses" : ["10270 avenue Royale"], "num_dwellings" : 30}}, {"type" : "Feature", "geometry" : {"type":"Point","coordinates":[-71.620026133,46.845540886]}, "properties" : {"id" : "22005199031796600000000", "lot_address" : "21 rue Louis-Jolliet", "ivp" : 44.9, "hlm_addresses" : ["21 rue Louis-Jolliet"], "num_dwellings" : 20}}, {"type" : "Feature", "geometry" : {"type":"Point","coordinates":[-71.366450037,47.001286155]}, "properties" : {"id" : "22035380792103500000000", "lot_address" : "60 chemin de l' Eglise", "ivp" : 5.6, "hlm_addresses" : ["60 chemin de l' Eglise"], "num_dwellings" : 11}}, {"type" : "Feature", "geometry" : {"type":"Point","coordinates":[-71.449317516,46.871290574]}, "properties" : {"id" : "23027329248315610000000", "lot_address" : "1335 rue Molard", "ivp" : 7.0, "hlm_addresses" : ["1335 rue Molard"], "num_dwellings" : 15}}, {"type" : "Feature", "geometry" : {"type":"Point","coordinates":[-71.435240036,46.842104746]}, "properties" : {"id" : "23027338945679610000000", "lot_address" : "1035 rue Dolomieu", "ivp" : 7.4, "hlm_addresses" : ["1035 rue Dolomieu"], "num_dwellings" : 20}}, {"type" : "Feature", "geometry" : {"type":"Point","coordinates":[-71.431489044,46.858248083]}, "properties" : {"id" : "23027339173769110000000", "lot_address" : "1405 rue de l' Esplanade", "ivp" : 19.4, "hlm_addresses" : ["1405 rue de l' Esplanade"], "num_dwellings" : 6}}, {"type" : "Feature", "geometry" : {"type":"Point","coordinates":[-71.431840111,46.858923321]}, "properties" : {"id" : "23027339174486610000000", "lot_address" : "1420 rue de l' Esplanade", "ivp" : 19.7, "hlm_addresses" : ["1420 rue de l' Esplanade"], "num_dwellings" : 6}}, {"type" : "Feature", "geometry" : {"type":"Point","coordinates":[-71.429574247,46.859541462]}, "properties" : {"id" : "23027339195223310000000", "lot_address" : "1469 rue de l' Esplanade", "ivp" : 20.2, "hlm_addresses" : ["1469 rue de l' Esplanade"], "num_dwellings" : 6}}, {"type" : "Feature", "geometry" : {"type":"Point","coordinates":[-71.422155582,46.843902602]}, "properties" : {"id" : "23027348947678610000000", "lot_address" : "1116 - 1122 rue du Castor", "ivp" : 14.2, "hlm_addresses" : ["1116 rue du Castor"], "num_dwellings" : 4}}, {"type" : "Feature", "geometry" : {"type":"Point","coordinates":[-71.421976928,46.843687983]}, "properties" : {"id" : "23027348947806610000000", "lot_address" : "1220 - 1226 rue des Comptines", "ivp" : 4.7, "hlm_addresses" : ["1220 rue des Comptines"], "num_dwellings" : 4}}, {"type" : "Feature", "geometry" : {"type":"Point","coordinates":[-71.422897174,46.844366693]}, "properties" : {"id" : "23027348948124110000000", "lot_address" : "1090 - 1096 rue du Castor", "ivp" : 14.2, "hlm_addresses" : ["1090 rue du Castor"], "num_dwellings" : 4}}, {"type" : "Feature", "geometry" : {"type":"Point","coordinates":[-71.422646822,46.84421657]}, "properties" : {"id" : "23027348948312110000000", "lot_address" : "1098 - 1104 rue du Castor", "ivp" : 17.0, "hlm_addresses" : ["1098 rue du Castor"], "num_dwellings" : 4}}, {"type" : "Feature", "geometry" : {"type":"Point","coordinates":[-71.4224012,46.844059588]}, "properties" : {"id" : "23027348948490610000000", "lot_address" : "1106 rue du Castor", "ivp" : 14.2, "hlm_addresses" : ["1106 rue du Castor"], "num_dwellings" : 4}}, {"type" : "Feature", "geometry" : {"type":"Point","coordinates":[-71.4226734,46.853109386]}, "properties" : {"id" : "23027349048371110000000", "lot_address" : "1455 - 1461 rue Emerson", "ivp" : 20.6, "hlm_addresses" : ["1461 rue Emerson", "1455 rue Emerson"], "num_dwellings" : 12}}, {"type" : "Feature", "geometry" : {"type":"Point","coordinates":[-71.410203458,46.855125462]}, "properties" : {"id" : "23027359130932110000000", "lot_address" : "1040 rue de la Joconde", "ivp" : 13.7, "hlm_addresses" : ["1040 rue de la Joconde"], "num_dwellings" : 10}}, {"type" : "Feature", "geometry" : {"type":"Point","coordinates":[-71.368794194,46.848331754]}, "properties" : {"id" : "23027389052414110000000", "lot_address" : "31 - 35 rue Arthur-Dion", "ivp" : 14.0, "hlm_addresses" : ["31 rue Arthur-Dion"], "num_dwellings" : 12}}, {"type" : "Feature", "geometry" : {"type":"Point","coordinates":[-71.375670321,46.906612411]}, "properties" : {"id" : "23027389607891610000000", "lot_address" : "525 - 535 rue Francoise-Cabrini", "ivp" : 18.0, "hlm_addresses" : ["525 rue Francoise-Cabrini", "535 rue Francoise-Cabrini"], "num_dwellings" : 30}}, {"type" : "Feature", "geometry" : {"type":"Point","coordinates":[-71.353864615,46.837750309]}, "properties" : {"id" : "23027398960744110000000", "lot_address" : "3690 rue Blain", "ivp" : 8.9, "hlm_addresses" : ["3690 rue Blain"], "num_dwellings" : 18}}, {"type" : "Feature", "geometry" : {"type":"Point","coordinates":[-71.36115279,46.846447207]}, "properties" : {"id" : "23027399010141610000000", "lot_address" : "175 rue Louis-Ix", "ivp" : 15.2, "hlm_addresses" : ["175 rue Louis-Ix"], "num_dwellings" : 60}}, {"type" : "Feature", "geometry" : {"type":"Point","coordinates":[-71.345953919,46.83872419]}, "properties" : {"id" : "23027408921714610000000", "lot_address" : "3409 - 3511 rue Pincourt", "ivp" : 9.4, "hlm_addresses" : ["3461 rue Pincourt", "3429 rue Pincourt", "3491 rue Pincourt", "3441 rue Pincourt", "3409 rue Pincourt", "3501 rue Pincourt", "3449 rue Pincourt", "3421 rue Pincourt", "3473 rue Pincourt", "3493 rue Pincourt"], "num_dwellings" : 52}}, {"type" : "Feature", "geometry" : {"type":"Point","coordinates":[-71.343840738,46.840114475]}, "properties" : {"id" : "23027408943340110000000", "lot_address" : "3251 - 3255 rue Pincourt", "ivp" : 16.4, "hlm_addresses" : ["3253 rue Pincourt", "3251 rue Pincourt", "3255 rue Pincourt"], "num_dwellings" : 18}}, {"type" : "Feature", "geometry" : {"type":"Point","coordinates":[-71.343505681,46.840336151]}, "properties" : {"id" : "23027408943602610000000", "lot_address" : "3245 - 3249 rue Pincourt", "ivp" : 17.4, "hlm_addresses" : ["3249 rue Pincourt", "3247 rue Pincourt", "3245 rue Pincourt"], "num_dwellings" : 18}}, {"type" : "Feature", "geometry" : {"type":"Point","coordinates":[-71.349291757,46.849701686]}, "properties" : {"id" : "23027409003416610000000", "lot_address" : "181 rue Lessard", "ivp" : 22.5, "hlm_addresses" : ["181 rue Lessard"], "num_dwellings" : 131}}, {"type" : "Feature", "geometry" : {"type":"Point","coordinates":[-71.339666598,46.860300496]}, "properties" : {"id" : "23027409175784110000000", "lot_address" : "11070 rue du Patelin", "ivp" : 3.7, "hlm_addresses" : ["11070 rue du Patelin"], "num_dwellings" : 8}}, {"type" : "Feature", "geometry" : {"type":"Point","coordinates":[-71.343941847,46.869628049]}, "properties" : {"id" : "23027409245648610000000", "lot_address" : "1796 rue de la Dignite", "ivp" : 20.4, "hlm_addresses" : ["1796 rue de la Dignite"], "num_dwellings" : 11}}, {"type" : "Feature", "geometry" : {"type":"Point","coordinates":[-71.343390893,46.869861482]}, "properties" : {"id" : "23027409256090610000000", "lot_address" : "1805 rue de la Dignite", "ivp" : 21.9, "hlm_addresses" : ["1805 rue de la Dignite"], "num_dwellings" : 10}}, {"type" : "Feature", "geometry" : {"type":"Point","coordinates":[-71.3428369,46.90948498]}, "properties" : {"id" : "23027409750860610000000", "lot_address" : "115 rue Moise-Verret", "ivp" : 1.2, "hlm_addresses" : ["115 rue Moise-Verret"], "num_dwellings" : 15}}, {"type" : "Feature", "geometry" : {"type":"Point","coordinates":[-71.336233475,46.874012618]}, "properties" : {"id" : "23027419300596510000000", "lot_address" : "1850 rue des Tricornes", "ivp" : 6.6, "hlm_addresses" : ["1850 rue des Tricornes"], "num_dwellings" : 25}}, {"type" : "Feature", "geometry" : {"type":"Point","coordinates":[-71.319793579,46.761737789]}, "properties" : {"id" : "23027428015757110000000", "lot_address" : "3490 rue de La Perade", "ivp" : 2.8, "hlm_addresses" : ["3490 rue de La Perade"], "num_dwellings" : 58}}, {"type" : "Feature", "geometry" : {"type":"Point","coordinates":[-71.320609792,46.762317192]}, "properties" : {"id" : "23027428016183110000000", "lot_address" : "3480 rue de La Perade", "ivp" : 3.0, "hlm_addresses" : ["3480 rue de La Perade"], "num_dwellings" : 58}}, {"type" : "Feature", "geometry" : {"type":"Point","coordinates":[-71.319275103,46.811694458]}, "properties" : {"id" : "23027428621680610000000", "lot_address" : "3865 rue Chevalier", "ivp" : 22.9, "hlm_addresses" : ["3865 rue Chevalier"], "num_dwellings" : 39}}, {"type" : "Feature", "geometry" : {"type":"Point","coordinates":[-71.298050311,46.890772984]}, "properties" : {"id" : "23027439498799110000000", "lot_address" : "8190 - 9120 avenue du Zoo", "ivp" : 17.1, "hlm_addresses" : ["8190 avenue du Zoo", "9120 avenue du Zoo"], "num_dwellings" : 102}}, {"type" : "Feature", "geometry" : {"type":"Point","coordinates":[-71.303682266,46.898009015]}, "properties" : {"id" : "23027439556669610000000", "lot_address" : "20265 - 20275 boulevard Henri-Bourassa", "ivp" : 19.4, "hlm_addresses" : ["20265 boulevard Henri-Bourassa"], "num_dwellings" : 12}}, {"type" : "Feature", "geometry" : {"type":"Point","coordinates":[-71.302004891,46.898717661]}, "properties" : {"id" : "23027439567987610000000", "lot_address" : "20270 A - 20270 O boulevard Henri-Bourassa", "ivp" : 3.4, "hlm_addresses" : ["20270 boulevard Henri-Bourassa"], "num_dwellings" : 15}}, {"type" : "Feature", "geometry" : {"type":"Point","coordinates":[-71.289896033,46.758114199]}, "properties" : {"id" : "23027448041623610000000", "lot_address" : "3075 rue De La Forest", "ivp" : 10.0, "hlm_addresses" : ["3075 rue De La Forest"], "num_dwellings" : 140}}, {"type" : "Feature", "geometry" : {"type":"Point","coordinates":[-71.289405705,46.869224204]}, "properties" : {"id" : "23027449264249110000000", "lot_address" : "1560 rue du Périgord", "ivp" : 18.1, "hlm_addresses" : ["1560 rue du Périgord"], "num_dwellings" : 20}}, {"type" : "Feature", "geometry" : {"type":"Point","coordinates":[-71.281996271,46.789776003]}, "properties" : {"id" : "23027458316015610000000", "lot_address" : "757 avenue Neree-Tremblay", "ivp" : 6.2, "hlm_addresses" : ["757 avenue Neree-Tremblay"], "num_dwellings" : 58}}, {"type" : "Feature", "geometry" : {"type":"Point","coordinates":[-71.281524754,46.789290481]}, "properties" : {"id" : "23027458316400610000000", "lot_address" : "765 avenue Neree-Tremblay", "ivp" : 4.2, "hlm_addresses" : ["765 avenue Neree-Tremblay"], "num_dwellings" : 58}}, {"type" : "Feature", "geometry" : {"type":"Point","coordinates":[-71.279964976,46.81110152]}, "properties" : {"id" : "23027458620713110000000", "lot_address" : "2600 avenue Raymond-Blouin", "ivp" : 22.5, "hlm_addresses" : ["2600 avenue Raymond-Blouin"], "num_dwellings" : 30}}, {"type" : "Feature", "geometry" : {"type":"Point","coordinates":[-71.273485842,46.851202055]}, "properties" : {"id" : "23027459084147110000000", "lot_address" : "7235 avenue Paul-Comtois", "ivp" : 3.3, "hlm_addresses" : ["7235 avenue Paul-Comtois"], "num_dwellings" : 15}}, {"type" : "Feature", "geometry" : {"type":"Point","coordinates":[-71.280383742,46.86995838]}, "properties" : {"id" : "23027459235076610000000", "lot_address" : "1171 - 1173 boulevard Jean-Talon Ouest", "ivp" : 3.2, "hlm_addresses" : ["1171 boulevard Jean-Talon Ouest"], "num_dwellings" : 12}}, {"type" : "Feature", "geometry" : {"type":"Point","coordinates":[-71.271454136,46.88273742]}, "properties" : {"id" : "23027459399978610000000", "lot_address" : "3840 - 3872 rue des Thuyas", "ivp" : 0.0, "hlm_addresses" : ["3846 rue des Thuyas", "3852 rue des Thuyas", "3858 rue des Thuyas", "3840 rue des Thuyas", "3870 rue des Thuyas", "3864 rue des Thuyas"], "num_dwellings" : 95}}, {"type" : "Feature", "geometry" : {"type":"Point","coordinates":[-71.261191499,46.795124695]}, "properties" : {"id" : "23027468462872610000000", "lot_address" : "1500 - 1510 boulevard de l' Entente", "ivp" : 7.0, "hlm_addresses" : ["1510 boulevard de l' Entente", "1500 boulevard de l' Entente"], "num_dwellings" : 202}}, {"type" : "Feature", "geometry" : {"type":"Point","coordinates":[-71.259980391,46.806169342]}, "properties" : {"id" : "23027468574966110000000", "lot_address" : "1175 rue Saint-Vallier Ouest", "ivp" : 2.7, "hlm_addresses" : ["1175 rue Saint-Vallier Ouest"], "num_dwellings" : 45}}, {"type" : "Feature", "geometry" : {"type":"Point","coordinates":[-71.263912579,46.818658146]}, "properties" : {"id" : "23027468658105110000000", "lot_address" : "225 rue Victor-Delamarre", "ivp" : 51.4, "hlm_addresses" : ["225 rue Victor-Delamarre"], "num_dwellings" : 24}}, {"type" : "Feature", "geometry" : {"type":"Point","coordinates":[-71.264728369,46.842364279]}, "properties" : {"id" : "23027468944808510000000", "lot_address" : "5025 5E Avenue Ouest", "ivp" : 16.6, "hlm_addresses" : ["5025 5E Avenue Ouest"], "num_dwellings" : 96}}, {"type" : "Feature", "geometry" : {"type":"Point","coordinates":[-71.264026952,46.841634417]}, "properties" : {"id" : "23027468954250110000000", "lot_address" : "4825 - 4925 5E Avenue Ouest", "ivp" : 13.9, "hlm_addresses" : ["4925 5E Avenue Ouest", "4825 5E Avenue Ouest"], "num_dwellings" : 100}}, {"type" : "Feature", "geometry" : {"type":"Point","coordinates":[-71.261301632,46.840026086]}, "properties" : {"id" : "23027468972332110000000", "lot_address" : "490 46E Rue Ouest", "ivp" : 13.6, "hlm_addresses" : ["490 46E Rue Ouest"], "num_dwellings" : 12}}, {"type" : "Feature", "geometry" : {"type":"Point","coordinates":[-71.245768667,46.781602186]}, "properties" : {"id" : "23027478286538910000000", "lot_address" : "1501 avenue de l' Assomption", "ivp" : 5.8, "hlm_addresses" : ["1501 avenue de l' Assomption"], "num_dwellings" : 101}}, {"type" : "Feature", "geometry" : {"type":"Point","coordinates":[-71.246469189,46.810577]}, "properties" : {"id" : "23027478589324110000000", "lot_address" : "105 rue de Courcelette", "ivp" : 20.8, "hlm_addresses" : ["105 rue de Courcelette"], "num_dwellings" : 45}}, {"type" : "Feature", "geometry" : {"type":"Point","coordinates":[-71.252504621,46.812966309]}, "properties" : {"id" : "23027478632693610000000", "lot_address" : "14 - 20 rue Marie-De-L'Incarnation", "ivp" : 0.5, "hlm_addresses" : ["18 rue Marie-De-L'Incarnation", "20 rue Marie-De-L'Incarnation", "16 rue Marie-De-L'Incarnation", "14 rue Marie-De-L'Incarnation"], "num_dwellings" : 176}}, {"type" : "Feature", "geometry" : {"type":"Point","coordinates":[-71.244323943,46.813694729]}, "properties" : {"id" : "23027478692998610000000", "lot_address" : "10 - 36 rue Bigaouette", "ivp" : 14.8, "hlm_addresses" : ["30 rue Bigaouette", "10 rue Bigaouette", "20 rue Bigaouette"], "num_dwellings" : 58}}, {"type" : "Feature", "geometry" : {"type":"Point","coordinates":[-71.251261049,46.832445298]}, "properties" : {"id" : "23027478843897610000000", "lot_address" : "196 boulevard des Cedres", "ivp" : 15.7, "hlm_addresses" : ["196 boulevard des Cedres"], "num_dwellings" : 55}}, {"type" : "Feature", "geometry" : {"type":"Point","coordinates":[-71.253312987,46.854735649]}, "properties" : {"id" : "23027479038585610000000", "lot_address" : "6250 4E Avenue Est", "ivp" : 7.4, "hlm_addresses" : ["6250 4E Avenue Est"], "num_dwellings" : 15}}, {"type" : "Feature", "geometry" : {"type":"Point","coordinates":[-71.2514886,46.876252443]}, "properties" : {"id" : "23027479352174610000000", "lot_address" : "750 avenue des Diamants", "ivp" : 34.3, "hlm_addresses" : ["750 avenue des Diamants"], "num_dwellings" : 24}}, {"type" : "Feature", "geometry" : {"type":"Point","coordinates":[-71.2434817,46.805828344]}, "properties" : {"id" : "23027488504551110000000", "lot_address" : "740 - 746 rue Napoleon", "ivp" : 7.6, "hlm_addresses" : ["740 rue Napoleon"], "num_dwellings" : 9}}, {"type" : "Feature", "geometry" : {"type":"Point","coordinates":[-71.243909458,46.808344562]}, "properties" : {"id" : "23027488506259110000000", "lot_address" : "260 rue de l' Aqueduc", "ivp" : 1.7, "hlm_addresses" : ["260 rue de l' Aqueduc"], "num_dwellings" : 26}}, {"type" : "Feature", "geometry" : {"type":"Point","coordinates":[-71.241131058,46.805438753]}, "properties" : {"id" : "23027488523346610000000", "lot_address" : "687 - 699 boulevard Charest Ouest", "ivp" : 0.7, "hlm_addresses" : ["687 boulevard Charest Ouest"], "num_dwellings" : 120}}, {"type" : "Feature", "geometry" : {"type":"Point","coordinates":[-71.240125366,46.805670167]}, "properties" : {"id" : "23027488533119110000000", "lot_address" : "475 - 495 rue Montmagny", "ivp" : 8.4, "hlm_addresses" : ["475 rue Montmagny"], "num_dwellings" : 9}}, {"type" : "Feature", "geometry" : {"type":"Point","coordinates":[-71.23973759,46.807966766]}, "properties" : {"id" : "23027488536434610000000", "lot_address" : "584 rue Napoleon", "ivp" : 10.2, "hlm_addresses" : ["584 rue Napoleon"], "num_dwellings" : 3}}, {"type" : "Feature", "geometry" : {"type":"Point","coordinates":[-71.240225162,46.809124152]}, "properties" : {"id" : "23027488537077590000000", "lot_address" : "326 - 332 rue Saint-Luc", "ivp" : 9.9, "hlm_addresses" : ["327 rue Saint-Luc"], "num_dwellings" : 6}}, {"type" : "Feature", "geometry" : {"type":"Point","coordinates":[-71.238953958,46.808151756]}, "properties" : {"id" : "23027488546036610000000", "lot_address" : "402 - 406 rue Saint-Luc", "ivp" : 8.6, "hlm_addresses" : ["406 rue Saint-Luc"], "num_dwellings" : 4}}, {"type" : "Feature", "geometry" : {"type":"Point","coordinates":[-71.238535323,46.80819944]}, "properties" : {"id" : "23027488546357110000000", "lot_address" : "415 - 417 rue Saint-Luc", "ivp" : 2.1, "hlm_addresses" : ["415 rue Saint-Luc"], "num_dwellings" : 3}}, {"type" : "Feature", "geometry" : {"type":"Point","coordinates":[-71.234234069,46.808901845]},